NAME,BOARD,TYPE,NAME_AB,ADDRESS_AB,CITY,PROVINCE,GRADES,POSTSECOND,DATA_SOURCE,PROVINCIAL_CODE_NUM,ECS,ELEM,JUNIOR_H,SENIOR_H,PROCESS_DT,POSTAL_COD,STRUCTURE_ID,longitude,latitude,location
Mount Royal University - City Centre Campus,,Post Secondary,,,Calgary,AB,,Y,Post Secondary Data,,N,N,N,N,2021/02/28,T2P3T5,1005439,-114.08031082082235,51.04955283303071,"(51.04955283303071, -114.08031082082235)"
University of Calgary - Main Campus,,Post Secondary,,,Calgary,AB,,Y,Post Secondary Data,,N,N,N,N,2021/02/28,,1383018,-114.13012547930957,51.075406674334126,"(51.075406674334126, -114.13012547930957)"
Alberta Ballet,The Alberta Ballet Company,Private School,Alberta Ballet School,"West Annex, 2nd Floor 906-12 Avenue S.W.",Calgary,AB,Junior High/Senior High,N,Provincial Data,1598,N,N,Y,Y,2021/02/28,T2R1K7,1414534,-114.08205798461157,51.0422510032592,"(51.0422510032592, -114.08205798461157)"
Dr. Oakley,The Calgary School Division,Public School,Dr. Oakley School,3904 - 20 Street S.W.,Calgary,AB,Elementary/Junior High/Senior High,N,Provincial Data,9630,N,Y,Y,Y,2021/02/28,T2T4Z9,1382285,-114.10843541386916,51.019272213182916,"(51.019272213182916, -114.10843541386916)"
H. D. Cartwright,The Calgary School Division,Public School,H. D. Cartwright School,5500 Dalhart Road N.W.,Calgary,AB,Junior High,N,Provincial Data,9660,N,N,Y,N,2021/02/28,T3A1V6,1384099,-114.16132737614602,51.11264854046467,"(51.11264854046467, -114.16132737614602)"
Little Angels,Asasa Learning,Private School,Little Angels,599 Northmount Dr NW,Calgary,AB,Unknown,N,Provincial Data,1476,N,N,N,N,2021/02/28,T2K3J6,1374276,-114.08802212217178,51.087173292014754,"(51.087173292014754, -114.08802212217178)"
Prince of Peace,The Calgary Roman Catholic Separate School Division,Separate School,Prince of Peace School,43 Auburn Meadows Blvd SE,Calgary,AB,Elementary/Junior High,N,Provincial Data,2080,N,Y,Y,N,2021/02/28,T3M2C9,2357503,-113.94984207732853,50.89326386813093,"(50.89326386813093, -113.94984207732853)"
Annie Gale,The Calgary School Division,Public School,Annie Gale School,577 Whiteridge Way N.E.,Calgary,AB,Elementary/Junior High,N,Provincial Data,9686,N,Y,Y,N,2021/02/28,T1Y4S8,1383125,-113.96894283818581,51.08907262467071,"(51.08907262467071, -113.96894283818581)"
North Point School for Boys,North Point School for Boys,Private School,North Point School for Boys,2445 - 23 Avenue SW,Calgary,AB,Unknown,N,Provincial Data,2318,N,N,N,N,2021/02/28,T2T0W3,1374124,-114.11748390737336,51.032556362057925,"(51.032556362057925, -114.11748390737336)"
Asasa Academy,Asasa Learning,Private School,Asasa Academy,599 Northmount Drive N.W.,Calgary,AB,Elementary,N,Provincial Data,1623,N,Y,N,N,2021/02/28,T2K3J6,1374276,-114.08802212217178,51.087173292014754,"(51.087173292014754, -114.08802212217178)"
Delta West Academy,Delta West Academy Society,Private School,Delta West Academy,414 - 11A Street N.E.,Calgary,AB,Elementary/Junior High/Senior High,N,Provincial Data,9972,N,Y,Y,Y,2021/02/28,T2E4P3,1000916,-114.03462489686252,51.05510767608769,"(51.05510767608769, -114.03462489686252)"
Evergreen,The Calgary School Division,Public School,Evergreen School,367 Everstone Dr. SW,Calgary,AB,Elementary,N,Provincial Data,1500,N,Y,N,N,2021/02/28,T2Y0L3,1382258,-114.10651983686331,50.91692393582255,"(50.91692393582255, -114.10651983686331)"
Calgary French & International,Calgary French & International School Society,Private School,Calgary French & International School,700 - 77 Street S.W.,Calgary,AB,Elementary/Junior High/Senior High,N,Provincial Data,796,N,Y,Y,Y,2021/02/28,T3H5R1,1381131,-114.19783220636697,51.06789492906019,"(51.06789492906019, -114.19783220636697)"
Haultain Memorial,The Calgary School Division,Public School,Haultain Memorial School,605 Queensland Drive S.E.,Calgary,AB,Elementary,N,Provincial Data,9362,N,Y,N,N,2021/02/28,T2J4S8,1382502,-114.02331873146171,50.93954416895745,"(50.93954416895745, -114.02331873146171)"
Father James Whelihan,The Calgary Roman Catholic Separate School Division,Separate School,Father James Whelihan,70 Sunmills Drive S.E.,Calgary,AB,Elementary/Junior High,N,Provincial Data,8729,N,Y,Y,N,2021/02/28,T2X2R5,1382251,-114.04701940847613,50.90452434869364,"(50.90452434869364, -114.04701940847613)"
F. E. Osborne,The Calgary School Division,Public School,F. E. Osborne School,5315 Varsity Drive N.W.,Calgary,AB,Elementary/Junior High,N,Provincial Data,9651,N,Y,Y,N,2021/02/28,T3A1A7,1384088,-114.16296501747333,51.09281180223239,"(51.09281180223239, -114.16296501747333)"
A. E. Cross,The Calgary School Division,Public School,A. E. Cross School,3445 - 37 Street S.W.,Calgary,AB,Junior High,N,Provincial Data,9638,N,N,Y,N,2021/02/28,T3E3C2,1382604,-114.14209579694007,51.02324430721721,"(51.02324430721721, -114.14209579694007)"
Sacred Heart Elementary,The Calgary Roman Catholic Separate School Division,Separate School,Sacred Heart Elementary School,1312 - 15 Street S.W.,Calgary,AB,Elementary,N,Provincial Data,8705,N,Y,N,N,2021/02/28,T3C0T6,1382544,-114.09663654839983,51.04092048201376,"(51.04092048201376, -114.09663654839983)"
Our Lady of the Assumption,The Calgary Roman Catholic Separate School Division,Separate School,Our Lady of the Assumption School,7311 - 34 Avenue N.W.,Calgary,AB,Elementary/Junior High,N,Provincial Data,8701,N,Y,Y,N,2021/02/28,T3B1N5,1382148,-114.19135025966536,51.08329961468408,"(51.08329961468408, -114.19135025966536)"
Calgary Academy Collegiate,Calgary Academy Society,Private School,Calgary Academy Collegiate,1677 - 93rd Street S.W.,Calgary,AB,Elementary/Junior High/Senior High,N,Provincial Data,1015,N,Y,Y,Y,2021/02/28,T3H0R3,1382819,-114.2242479372351,51.03943008461902,"(51.03943008461902, -114.2242479372351)"
Notre-Dame de la Paix,The Southern Francophone Education Region,Francophone,Notre-Dame de la Paix,809 Willingdon Blvd SE,Calgary,AB,Elementary,N,Provincial Data,1378,N,Y,N,N,2021/02/28,T2J2B7,1382811,-114.04337260221402,50.950917045308415,"(50.950917045308415, -114.04337260221402)"
Columbia College,Columbia College Corp.,Private School,Columbia College,802 Manning Road N.E.,Calgary,AB,Senior High,N,Provincial Data,9964,N,N,N,Y,2021/02/28,T2E7N8,1374781,-114.01802196381442,51.057001826427346,"(51.057001826427346, -114.01802196381442)"
Vista Virtual School - Calgary Writing Centre,The Pembina Hills School Division,Public School,Vista Virtual School - Calgary Writing Centre,341 -  58 Avenue SE,Calgary,AB,Unknown,N,Provincial Data,1558,N,N,N,N,2021/02/28,,1372550,-114.05765966286553,51.000485415841375,"(51.000485415841375, -114.05765966286553)"
North Middle School Campus,Foundations for the Future Charter Academy Charter School Society,Charter,North Middle School Campus,211 McKnight Blvd. NE,Calgary,AB,Elementary/Junior High,N,Provincial Data,1426,N,Y,Y,N,2021/02/28,T2E5S7,1384092,-114.06060095936921,51.095453050755296,"(51.095453050755296, -114.06060095936921)"
Hawkwood,The Calgary School Division,Public School,Hawkwood School,650 Hawkwood Boulevard N.W.,Calgary,AB,Elementary,N,Provincial Data,9273,N,Y,N,N,2021/02/28,T3G2V7,1383684,-114.17874610460872,51.13065691487295,"(51.13065691487295, -114.17874610460872)"
Annie Foote,The Calgary School Division,Public School,Annie Foote School,6320 Temple Drive N.E.,Calgary,AB,Elementary,N,Provincial Data,9377,N,Y,N,N,2021/02/28,T1Y5V5,1383036,-113.94033027131916,51.08598862372898,"(51.08598862372898, -113.94033027131916)"
Holy Cross Elementary Junior High,The Calgary Roman Catholic Separate School Division,Separate School,Holy Cross Elementary Junior High School,3719 - 26 Avenue S.E.,Calgary,AB,Elementary/Junior High,N,Provincial Data,8704,N,Y,Y,N,2021/02/28,T2B0C6,1382831,-113.97956254245209,51.03005540580934,"(51.03005540580934, -113.97956254245209)"
Briar Hill,The Calgary School Division,Public School,Briar Hill School,1233 - 21 Street N.W.,Calgary,AB,Elementary,N,Provincial Data,9205,N,Y,N,N,2021/02/28,T2N2L8,1381389,-114.1114185416306,51.063113295040075,"(51.063113295040075, -114.1114185416306)"
West Island College,West Island College Society of Alberta,Private School,West Island College,7410 Blackfoot Trail S.E.,Calgary,AB,Junior High/Senior High,N,Provincial Data,9913,N,N,Y,Y,2021/02/28,T2H1M5,1005728,-114.05216040326846,50.98710437807516,"(50.98710437807516, -114.05216040326846)"
West Dalhousie,The Calgary School Division,Public School,West Dalhousie School,6502 - 58 Street N.W.,Calgary,AB,Elementary,N,Provincial Data,9344,N,Y,N,N,2021/02/28,T3A2C8,1383231,-114.16953888214768,51.111168202162155,"(51.111168202162155, -114.16953888214768)"
Douglas Harkness,The Calgary School Division,Public School,Douglas Harkness School,6203 - 24 Avenue N.E.,Calgary,AB,Elementary,N,Provincial Data,9347,N,Y,N,N,2021/02/28,T1Y2C5,1383010,-113.94604456169037,51.07384348029244,"(51.07384348029244, -113.94604456169037)"
Holy Family,The Calgary Roman Catholic Separate School Division,Separate School,Holy Family School,904 - 32 St. S.E.,Calgary,AB,Elementary,N,Provincial Data,8503,N,Y,N,N,2021/02/28,T2A0Z1,1382133,-113.98786382817913,51.04553616438823,"(51.04553616438823, -113.98786382817913)"
All Boys Alternative Program,The Calgary School Division,Public School,All Boys Alternative Program,c/o Sir James Lougheed School 3519 - 36 Avenue SW,Calgary,AB,Elementary,N,Provincial Data,1579,N,Y,N,N,2021/02/28,T3E1C2,1378411,-114.13622578607202,51.02117977680219,"(51.02117977680219, -114.13622578607202)"
McKenzie Lake,The Calgary School Division,Public School,McKenzie Lake School,16210 McKenzie Lake Way S.E.,Calgary,AB,Elementary,N,Provincial Data,9385,N,Y,N,N,2021/02/28,T2Z1L7,1382257,-113.98499738253085,50.90621793658535,"(50.90621793658535, -113.98499738253085)"
Monsignor J. S. Smith,The Calgary Roman Catholic Separate School Division,Separate School,Monsignor J. S. Smith School,2919 Douglasdale Boulevard S.E,Calgary,AB,Elementary/Junior High,N,Provincial Data,313,N,Y,Y,N,2021/02/28,T2Z2H9,1382570,-113.98986385894905,50.94121168049701,"(50.94121168049701, -113.98986385894905)"
Calgary Christian High,The Palliser School Division,Public School,Calgary Christian High School,5029 - 26 Avenue S.W.,Calgary,AB,Junior High/Senior High,N,Provincial Data,9978,N,N,Y,Y,2021/02/28,T3E0R5,1382516,-114.15894109066254,51.02976335703151,"(51.02976335703151, -114.15894109066254)"
St. Andrew,The Calgary Roman Catholic Separate School Division,Separate School,St. Andrew School,4331 - 41 Avenue S.W.,Calgary,AB,Elementary,N,Provincial Data,8508,N,Y,N,N,2021/02/28,T3E1G2,1382283,-114.14772416944314,51.016362824091786,"(51.016362824091786, -114.14772416944314)"
South Middle School Campus,Foundations for the Future Charter Academy Charter School Society,Charter,South Middle School Campus,8710 Ancourt Rd. SE,Calgary,AB,Elementary/Junior High,N,Provincial Data,1351,N,Y,Y,N,2021/02/28,T2H1V2,1382501,-114.05330502890665,50.97529024119396,"(50.97529024119396, -114.05330502890665)"
Queen Elizabeth High,The Calgary School Division,Public School,Queen Elizabeth High School,512 - 18 Street N.W.,Calgary,AB,Junior High/Senior High,N,Provincial Data,9806,N,N,Y,Y,2021/02/28,T2N2G5,1415642,-114.10191628711746,51.05620243460679,"(51.05620243460679, -114.10191628711746)"
Belfast,The Calgary School Division,Public School,Belfast School,1229 - 17A Street N.E.,Calgary,AB,Elementary,N,Provincial Data,9203,N,Y,N,N,2021/02/28,T2E4V4,1382330,-114.01830826163983,51.063374985054146,"(51.063374985054146, -114.01830826163983)"
St. Mark Elementary,The Calgary Roman Catholic Separate School Division,Separate School,St. Mark Elementary School,4589 Marbank Drive N.E.,Calgary,AB,Elementary,N,Provincial Data,8536,N,Y,N,N,2021/02/28,T2A3V8,1381390,-113.96934777766288,51.06303244891205,"(51.06303244891205, -113.96934777766288)"
Nose Creek,The Calgary School Division,Public School,Nose Creek School,135 Covepark Square NE,Calgary,AB,Elementary/Junior High,N,Provincial Data,1674,N,Y,Y,N,2021/02/28,T3K5W9,1550793,-114.06069973692749,51.16714955538142,"(51.16714955538142, -114.06069973692749)"
Greek Community,Hellenic Society of Calgary and District,Private School,Greek Community School,1 Tamarac Crescent S.W.,Calgary,AB,Senior High,N,Provincial Data,9957,N,N,N,Y,2021/02/28,T3C3B7,1377463,-114.13749373808025,51.04817390993862,"(51.04817390993862, -114.13749373808025)"
Prince of Wales,The Calgary School Division,Public School,Prince of Wales School,253 Parkland Way SE,Calgary,AB,Elementary,N,Provincial Data,9341,N,Y,N,N,2021/02/28,T2J3Y9,1382259,-114.03330800797715,50.92476417668588,"(50.92476417668588, -114.03330800797715)"
Penbrooke Meadows,The Calgary School Division,Public School,Penbrooke Meadows School,5645 Pensacola Crescent S.E.,Calgary,AB,Elementary,N,Provincial Data,9356,N,Y,N,N,2021/02/28,T2A2G4,1382128,-113.95218879574247,51.041795332387096,"(51.041795332387096, -113.95218879574247)"
Hugh A. Bennett,The Calgary School Division,Public School,Hugh A. Bennett School,40 Saddlelake Way NE,Calgary,AB,Elementary,N,Provincial Data,2056,N,Y,N,N,2021/02/28,T3J0V1,2423257,-113.92854831707838,51.131683955067594,"(51.131683955067594, -113.92854831707838)"
Christine Meikle,The Calgary School Division,Public School,Christine Meikle School,3525 50 Street NW,Calgary,AB,Elementary/Junior High/Senior High,N,Provincial Data,9037,N,Y,Y,Y,2021/02/28,T3A2Y5,2365264,-114.16106571150428,51.084544694949244,"(51.084544694949244, -114.16106571150428)"
St. William,The Calgary Roman Catholic Separate School Division,Separate School,St. William School,11020 Fairmount Drive S.E.,Calgary,AB,Elementary,N,Provincial Data,8529,N,Y,N,N,2021/02/28,T2J0T1,1382589,-114.05925815681651,50.953621597116076,"(50.953621597116076, -114.05925815681651)"
Canadian Montessori School West,The Canadian Montessori School Ltd.,Private School,Canadian Montessori School West,1112 - 70 Avenue S.W.,Calgary,AB,Unknown,N,Provincial Data,1686,N,N,N,N,2021/02/28,T2V0P6,1186607,-114.08826216557271,50.99074473227965,"(50.99074473227965, -114.08826216557271)"
Alberta University of the Arts,,Post Secondary,,,Calgary,AB,,Y,Post Secondary Data,,N,N,N,N,2021/02/28,,1382329,-114.09037421858338,51.06329609568463,"(51.06329609568463, -114.09037421858338)"
St. Anthony,The Calgary Roman Catholic Separate School Division,Separate School,St. Anthony,4811 6th St. SW,Calgary,AB,Elementary/Junior High/Senior High,N,Provincial Data,8515,N,Y,Y,Y,2021/02/28,T2S2N5,1377870,-114.0792951385963,51.01010774903789,"(51.01010774903789, -114.0792951385963)"
Tuscany,The Calgary School Division,Public School,Tuscany School,990 Tuscany Drive N.W.,Calgary,AB,Elementary,N,Provincial Data,1335,N,Y,N,N,2021/02/28,T3L2T4,1383513,-114.24543064926253,51.11778706209014,"(51.11778706209014, -114.24543064926253)"
St. Henry Elementary,The Calgary Roman Catholic Separate School Division,Separate School,St. Henry Elementary School,7423 - 10 Street N.W.,Calgary,AB,Elementary,N,Provincial Data,8534,N,Y,N,N,2021/02/28,T2K1H5,1384103,-114.08017778127906,51.11759752153549,"(51.11759752153549, -114.08017778127906)"
North Point School for Boys,North Point School for Boys,Private School,North Point School for Boys,2445 23 Ave SW,Calgary,AB,Elementary/Junior High/Senior High,N,Provincial Data,1982,N,Y,Y,Y,2021/02/28,T2T0W3,1374124,-114.11748390737336,51.032556362057925,"(51.032556362057925, -114.11748390737336)"
Tom Baines,The Calgary School Division,Public School,Tom Baines School,250 Edgepark Boulevard N.W.,Calgary,AB,Elementary/Junior High,N,Provincial Data,9690,N,Y,Y,N,2021/02/28,T3A3S2,1383297,-114.15699353413262,51.133514395054824,"(51.133514395054824, -114.15699353413262)"
Central Memorial High,The Calgary School Division,Public School,Central Memorial High School,5111 - 21 Street S.W.,Calgary,AB,Junior High/Senior High,N,Provincial Data,9823,N,N,Y,Y,2021/02/28,T3E1R9,1382208,-114.11352046374272,51.007927879674035,"(51.007927879674035, -114.11352046374272)"
Renfrew Educational Services-Janice McTighe Centre,Renfrew Educational Services Society,Private School,Renfrew Educational Services-Janice McTighe Centre,2050 - 21 Street N.E.,Calgary,AB,Elementary,N,Provincial Data,249,N,Y,N,N,2021/02/28,T2E6S5,1381134,-114.00829174988903,51.069616982582104,"(51.069616982582104, -114.00829174988903)"
Woodman,The Calgary School Division,Public School,Woodman School,8706 Elbow Drive S.W.,Calgary,AB,Elementary/Junior High,N,Provincial Data,9631,N,Y,Y,N,2021/02/28,T2V1L2,1382896,-114.08321298447541,50.97565830736244,"(50.97565830736244, -114.08321298447541)"
Wilma Hansen,The Calgary School Division,Public School,Wilma Hansen School,963 Queensland Drive S.E.,Calgary,AB,Elementary/Junior High,N,Provincial Data,9685,N,Y,Y,N,2021/02/28,,1376198,-114.01887042651035,50.93228729996409,"(50.93228729996409, -114.01887042651035)"
Mountain Park,The Calgary School Division,Public School,Mountain Park School,312 Mt. Douglas Close S.E.,Calgary,AB,Elementary/Junior High,N,Provincial Data,1333,N,Y,Y,N,2021/02/28,T2Z4Y1,1382580,-113.98187987887539,50.92379832238602,"(50.92379832238602, -113.98187987887539)"
Henry Wise Wood High,The Calgary School Division,Public School,Henry Wise Wood High School,910 - 75 Avenue S.W.,Calgary,AB,Senior High,N,Provincial Data,9836,N,N,N,Y,2021/02/28,T2V0S6,1382192,-114.08468438422027,50.98634062987373,"(50.98634062987373, -114.08468438422027)"
"Almadina Language Charter Academy, Mountain View Campus",Almadina School Society,Charter,"Almadina Language Charter Academy, Mountain View Campus",2031 Sable Drive S.E.,Calgary,AB,Elementary,N,Provincial Data,6007,N,Y,N,N,2021/02/28,T2B1R9,1382521,-113.98683102030564,51.03220045690152,"(51.03220045690152, -113.98683102030564)"
St. Hubert Elementary,The Calgary Roman Catholic Separate School Division,Separate School,St. Hubert Elementary School,320 - 72 Avenue N.E.,Calgary,AB,Elementary,N,Provincial Data,8502,N,Y,N,N,2021/02/28,T2K5J3,1384104,-114.06221327740165,51.11837590313499,"(51.11837590313499, -114.06221327740165)"
Crossing Park,The Calgary School Division,Public School,Crossing Park School,500 Martindale Blvd. N.E.,Calgary,AB,Elementary/Junior High,N,Provincial Data,536,N,Y,Y,N,2021/02/28,T3J4W8,1383512,-113.96632369820337,51.11569222014252,"(51.11569222014252, -113.96632369820337)"
Janus Academy,Janus Academy Society,Private School,Janus Academy,2223 Spiller Road SE,Calgary,AB,Elementary/Junior High,N,Provincial Data,32,N,Y,Y,N,2021/02/28,T2G4G9,1377882,-114.04578944271555,51.03318858802252,"(51.03318858802252, -114.04578944271555)"
Olympic Heights,The Calgary School Division,Public School,Olympic Heights School,875 Strathcona Drive S.W.,Calgary,AB,Elementary,N,Provincial Data,9382,N,Y,N,N,2021/02/28,T3H2Z7,1382135,-114.18077646290406,51.045967586222176,"(51.045967586222176, -114.18077646290406)"
O.S. Geiger,The Calgary School Division,Public School,O.S. Geiger School,100 Castlebrook Drive N.E.,Calgary,AB,Elementary,N,Provincial Data,9271,N,Y,N,N,2021/02/28,T3J2J4,1384095,-113.96154050579484,51.10488651241559,"(51.10488651241559, -113.96154050579484)"
St. Marguerite,The Calgary Roman Catholic Separate School Division,Separate School,St. Marguerite School,1100 New Brighton Drive SE,Calgary,AB,Elementary,N,Provincial Data,2082,N,Y,N,N,2021/02/28,T2Z0W1,2389334,-113.9372307549781,50.92115491375319,"(50.92115491375319, -113.9372307549781)"
St. Isabella,The Calgary Roman Catholic Separate School Division,Separate School,St. Isabella School,855 Copperfield Blvd SE,Calgary,AB,Elementary/Junior High,N,Provincial Data,1680,N,Y,Y,N,2021/02/28,T2Z4W8,1548028,-113.93598898444304,50.910583189769525,"(50.910583189769525, -113.93598898444304)"
Calgary Girls Charter,Calgary Girls' School Society,Charter,Calgary Girls Charter School,6304 Larkspur Way S.W.,Calgary,AB,Elementary/Junior High,N,Provincial Data,1128,N,Y,Y,N,2021/02/28,T3E5P7,1382200,-114.1147539295334,50.99907702433947,"(50.99907702433947, -114.1147539295334)"
Cedarbrae,The Calgary School Division,Public School,Cedarbrae School,10631 Oakfield Drive S.W.,Calgary,AB,Elementary,N,Provincial Data,9338,N,Y,N,N,2021/02/28,T2W2T3,1382270,-114.13318451793666,50.958398763710726,"(50.958398763710726, -114.13318451793666)"
Our Lady of the Evergreens Catholic,The Calgary Roman Catholic Separate School Division,Separate School,Our Lady of the Evergreens Catholic School,322 Everridge Dr. S.W.,Calgary,AB,Elementary,N,Provincial Data,1485,N,Y,N,N,2021/02/28,T2Y0L5,1382253,-114.12219422659528,50.91437381106913,"(50.91437381106913, -114.12219422659528)"
Master's Academy,The Palliser School Division,Public School,Master's Academy,4414 Crowchild Trail S.W.,Calgary,AB,Elementary,N,Provincial Data,30,N,Y,N,N,2021/02/28,T2T5J4,1382281,-114.11654589992118,51.015302380710715,"(51.015302380710715, -114.11654589992118)"
Royal Oak,The Calgary School Division,Public School,Royal Oak School,9100 Royal Birch Blvd NW,Calgary,AB,Elementary,N,Provincial Data,1519,N,Y,N,N,2021/02/28,T3G5R8,1369226,-114.22206925363544,51.14557279979408,"(51.14557279979408, -114.22206925363544)"
Canadian Montessori School North,The Canadian Montessori School Ltd.,Private School,Canadian Montessori School North,1112 - 70 Avenue S.W.,Calgary,AB,Unknown,N,Provincial Data,1685,N,N,N,N,2021/02/28,T2V0P6,1186607,-114.08826216557271,50.99074473227965,"(50.99074473227965, -114.08826216557271)"
St. Catherine Elementary,The Calgary Roman Catholic Separate School Division,Separate School,St. Catherine Elementary School,11 Canata Close S.W.,Calgary,AB,Elementary,N,Provincial Data,8533,N,Y,N,N,2021/02/28,T2W1P6,1382572,-114.08648879230059,50.943846463439655,"(50.943846463439655, -114.08648879230059)"
R. T. Alderman,The Calgary School Division,Public School,R. T. Alderman School,725 Mapleton Drive S.E.,Calgary,AB,Elementary/Junior High,N,Provincial Data,9653,N,Y,Y,N,2021/02/28,T2J1S1,1382888,-114.04458790845642,50.961159377722154,"(50.961159377722154, -114.04458790845642)"
Guy Weadick,The Calgary School Division,Public School,Guy Weadick School,5612 Templehill Road N.E.,Calgary,AB,Elementary,N,Provincial Data,9343,N,Y,N,N,2021/02/28,T1Y4W7,1383120,-113.95297486813038,51.08698833787567,"(51.08698833787567, -113.95297486813038)"
Killarney,The Calgary School Division,Public School,Killarney School,3008 - 33 Street S.W.,Calgary,AB,Elementary,N,Provincial Data,9104,N,Y,N,N,2021/02/28,T3E2T9,1382508,-114.13472931114624,51.028193421126915,"(51.028193421126915, -114.13472931114624)"
Rundle College Academy,Rundle College Society,Private School,Rundle College Academy,4330 - 16 Street S.W.,Calgary,AB,Elementary/Junior High/Senior High,N,Provincial Data,5297,N,Y,Y,Y,2021/02/28,T2T4H9,1382282,-114.09977254223199,51.01529661742848,"(51.01529661742848, -114.09977254223199)"
Calgary Chinese Alliance,Calgary Chinese Alliance School Society,Private School,Calgary Chinese Alliance School,150 Beddington Blvd. NE,Calgary,AB,Senior High,N,Provincial Data,5001,N,N,N,Y,2021/02/28,T3K2E2,1400877,-114.06762549130704,51.125732637866925,"(51.125732637866925, -114.06762549130704)"
Sam Livingston,The Calgary School Division,Public School,Sam Livingston School,12011 Bonaventure Drive S.E.,Calgary,AB,Elementary,N,Provincial Data,9354,N,Y,N,N,2021/02/28,T2J3G7,1382574,-114.06127034224946,50.945448184044736,"(50.945448184044736, -114.06127034224946)"
Chief Justice Milvain,The Calgary School Division,Public School,Chief Justice Milvain School,3428 - 42 Street N.E.,Calgary,AB,Elementary,N,Provincial Data,9361,N,Y,N,N,2021/02/28,T1Y6A3,1382292,-113.97218998359857,51.083686045048424,"(51.083686045048424, -113.97218998359857)"
Abbeydale,The Calgary School Division,Public School,Abbeydale School,320 Abergale Drive N.E.,Calgary,AB,Elementary,N,Provincial Data,9376,N,Y,N,N,2021/02/28,T2A6W2,1382217,-113.92984856718641,51.05662519516456,"(51.05662519516456, -113.92984856718641)"
Twelve Mile Coulee,The Calgary School Division,Public School,Twelve Mile Coulee School,65 Tuscany Hills Road N.W.,Calgary,AB,Elementary/Junior High,N,Provincial Data,1678,N,Y,Y,N,2021/02/28,T3L0C7,1545333,-114.24348010970016,51.122836167480706,"(51.122836167480706, -114.24348010970016)"
Heritage Christian Academy,The Palliser School Division,Public School,Heritage Christian Academy,2003 McKnight Boulevard N.E.,Calgary,AB,Elementary/Junior High/Senior High,N,Provincial Data,9906,N,Y,Y,Y,2021/02/28,T2E6L2,1384058,-114.0101364019379,51.09213522426762,"(51.09213522426762, -114.0101364019379)"
"Calgary Islamic School, Akram Jomaa Campus",The Palliser School Division,Public School,"Calgary Islamic School, Akram Jomaa Campus",2612 - 37 Avenue N.E.,Calgary,AB,Elementary/Junior High/Senior High,N,Provincial Data,9969,N,Y,Y,Y,2021/02/28,T1Y5L2,1005821,-114.00047736588895,51.08758987045084,"(51.08758987045084, -114.00047736588895)"
St. Brigid,The Calgary Roman Catholic Separate School Division,Separate School,St. Brigid,"730 Citadel Way, N.W.",Calgary,AB,Elementary/Junior High,N,Provincial Data,1119,N,Y,Y,N,2021/02/28,T3G5S6,1383520,-114.1877229326153,51.146340321967244,"(51.146340321967244, -114.1877229326153)"
William Roper Hull,The Calgary School Division,Public School,William Roper Hull School,2266 Woodpark Avenue SW,Calgary,AB,Elementary/Junior High/Senior High,N,Provincial Data,9033,N,Y,Y,Y,2021/02/28,T2W2Z8,1382587,-114.11383245286675,50.94836264574441,"(50.94836264574441, -114.11383245286675)"
Scenic Acres,The Calgary School Division,Public School,Scenic Acres School,50 Scurfield Way N.W.,Calgary,AB,Elementary,N,Provincial Data,597,N,Y,N,N,2021/02/28,T3L1T2,1384107,-114.2156565666239,51.120089086344315,"(51.120089086344315, -114.2156565666239)"
Light of Christ Catholic,The Calgary Roman Catholic Separate School Division,Separate School,Light of Christ Catholic School,6270 Saddlehorn Dr. N.E.,Calgary,AB,Elementary/Junior High,N,Provincial Data,1486,N,Y,Y,N,2021/02/28,T3J0L8,1383296,-113.94127347852033,51.12953723451825,"(51.12953723451825, -113.94127347852033)"
The Holy House of Our Lady and St. John,The Gilbertine Institute of Catholic Studies,Private School,The Holy House of Our Lady and St. John,1423 8 Ave SE,Calgary,AB,Unknown,N,Provincial Data,2338,N,N,N,N,2021/02/28,T2G0N1,1377431,-114.02925048065653,51.040023557790406,"(51.040023557790406, -114.02925048065653)"
Chinook Winds Adventist Academy,Alberta Conference of 7th Day Adventist Church,Private School,Chinook Winds Adventist Academy,10101 - 2nd Avenue S.W.,Calgary,AB,Elementary/Junior High/Senior High,N,Provincial Data,9916,N,Y,Y,Y,2021/02/28,T3B5T2,1376232,-114.2332661890989,51.07923420646401,"(51.07923420646401, -114.2332661890989)"
St. Kateri Tekakwitha,The Calgary Roman Catholic Separate School Division,Separate School,St. Kateri Tekakwitha School,1005 Abbotsford Drive N.E.,Calgary,AB,Elementary,N,Provincial Data,8552,N,Y,N,N,2021/02/28,T2A7N5,1381388,-113.9276608348846,51.06185379754266,"(51.06185379754266, -113.9276608348846)"
Calgary Home Education,The Calgary School Division,Public School,Calgary Home Education,5505 4A St. SW,Calgary,AB,Elementary/Junior High/Senior High,N,Provincial Data,9425,N,Y,Y,Y,2021/02/28,T2V0Z7,1378385,-114.07444393789527,51.00470399835142,"(51.00470399835142, -114.07444393789527)"
University of Calgary - Spy Hill Campus,,Post Secondary,,,Calgary,AB,,Y,Post Secondary Data,,N,N,N,N,2021/02/28,T3R1J3,1381575,-114.2169018246824,51.16003783455298,"(51.16003783455298, -114.2169018246824)"
École du Nouveau-Monde,The Southern Francophone Education Region,Francophone,École du Nouveau-Monde,220 Scenic Acres Drive NW,Calgary,AB,Elementary,N,Provincial Data,2149,N,Y,N,N,2021/02/28,T3L0E7,2366228,-114.21512403191952,51.111596016800426,"(51.111596016800426, -114.21512403191952)"
Harold Panabaker,The Calgary School Division,Public School,Harold Panabaker School,23 Sackville Drive S.W.,Calgary,AB,Elementary/Junior High,N,Provincial Data,9643,N,Y,Y,N,2021/02/28,T2W0W3,1593042,-114.0866481919576,50.957639591895244,"(50.957639591895244, -114.0866481919576)"
Monsignor E. L. Doyle Elementary,The Calgary Roman Catholic Separate School Division,Separate School,Monsignor E. L. Doyle Elementary School,8887 Scurfield Drive NW,Calgary,AB,Elementary,N,Provincial Data,8555,N,Y,N,N,2021/02/28,T3L1H6,1383516,-114.21642442364357,51.122028403688844,"(51.122028403688844, -114.21642442364357)"
St. John Paul II,The Calgary Roman Catholic Separate School Division,Separate School,St. John Paul II School,119 Castleridge Drive N.E.,Calgary,AB,Elementary,N,Provincial Data,8549,N,Y,N,N,2021/02/28,T3J1P6,1383230,-113.95619939061416,51.107710228998044,"(51.107710228998044, -113.95619939061416)"
Buffalo Rubbing Stone,The Calgary School Division,Public School,Buffalo Rubbing Stone School,1308 Panatella Blvd NW,Calgary,AB,Elementary,N,Provincial Data,2029,N,Y,N,N,2021/02/28,T3K0X2,2366305,-114.08736850697132,51.16835239984041,"(51.16835239984041, -114.08736850697132)"
Children's Village,The Calgary School Division,Public School,Children's Village School,1210 Russet Road NE,Calgary,AB,Elementary,N,Provincial Data,9014,N,Y,N,N,2021/02/28,T2E5L5,1381396,-114.04196438357498,51.06386878676648,"(51.06386878676648, -114.04196438357498)"
Menno Simons Christian,The Palliser School Division,Public School,Menno Simons Christian School,7000 Elkton Drive S.W.,Calgary,AB,Elementary/Junior High,N,Provincial Data,9936,N,Y,Y,N,2021/02/28,T3H4Y7,1382206,-114.1885009776293,51.02420031640936,"(51.02420031640936, -114.1885009776293)"
St. Matthew,The Calgary Roman Catholic Separate School Division,Separate School,St. Matthew School,416 - 83 Avenue S.E.,Calgary,AB,Elementary/Junior High,N,Provincial Data,8716,N,Y,Y,N,2021/02/28,T2H1N3,1382898,-114.05851011862411,50.97868236718686,"(50.97868236718686, -114.05851011862411)"
Chinook Park,The Calgary School Division,Public School,Chinook Park School,1312 - 75 Avenue S.W.,Calgary,AB,Elementary,N,Provincial Data,9306,N,Y,N,N,2021/02/28,T2V0S6,1382904,-114.08937033343436,50.986447768904256,"(50.986447768904256, -114.08937033343436)"
Ramsay,The Calgary School Division,Public School,Ramsay School,2223 Spiller Road S.E.,Calgary,AB,Elementary,N,Provincial Data,9130,N,Y,N,N,2021/02/28,T2G4G9,1377882,-114.04578944271555,51.03318858802252,"(51.03318858802252, -114.04578944271555)"
The Chinese Academy,The Chinese Academy Foundation,Private School,The Chinese Academy,"#191, 1518 Centre Street N.E.",Calgary,AB,Senior High,N,Provincial Data,13,N,N,N,Y,2021/02/28,T2K1C2,1383511,-114.07013116580133,51.112797441016106,"(51.112797441016106, -114.07013116580133)"
Lake Bonavista,The Calgary School Division,Public School,Lake Bonavista School,1015 - 120 Avenue S.E.,Calgary,AB,Elementary,N,Provincial Data,9334,N,Y,N,N,2021/02/28,T2J2L1,1382266,-114.04092382155108,50.94454097842627,"(50.94454097842627, -114.04092382155108)"
Mayland Heights,The Calgary School Division,Public School,Mayland Heights School,2324 Maunsell Drive N.E.,Calgary,AB,Elementary,N,Provincial Data,9223,N,Y,N,N,2021/02/28,T2E6A2,1381144,-114.00729277018596,51.05895181318119,"(51.05895181318119, -114.00729277018596)"
Cecil Swanson,The Calgary School Division,Public School,Cecil Swanson School,4820 Rundlewood Drive N.E.,Calgary,AB,Elementary,N,Provincial Data,9373,N,Y,N,N,2021/02/28,T1Y5V9,1523791,-113.96754312931172,51.0741821887835,"(51.0741821887835, -113.96754312931172)"
Earl Grey,The Calgary School Division,Public School,Earl Grey School,845 Hillcrest Avenue S.W.,Calgary,AB,Elementary,N,Provincial Data,9118,N,Y,N,N,2021/02/28,T2T0Z1,1382517,-114.08265379500713,51.03087449470886,"(51.03087449470886, -114.08265379500713)"
St. Joan of Arc Elementary/Junior High,The Calgary Roman Catholic Separate School Division,Separate School,St. Joan of Arc Elementary/Junior High School,7970 Wentworth Drive SW,Calgary,AB,Elementary/Junior High,N,Provincial Data,1338,N,Y,Y,N,2021/02/28,T3H0K2,1537005,-114.20724035183872,51.05712473725232,"(51.05712473725232, -114.20724035183872)"
Rosedale,The Calgary School Division,Public School,Rosedale School,905 - 13 Avenue N.W.,Calgary,AB,Elementary/Junior High,N,Provincial Data,9618,N,Y,Y,N,2021/02/28,T2M0G3,1382331,-114.0814990521734,51.06359709162604,"(51.06359709162604, -114.0814990521734)"
Buchanan,The Calgary School Division,Public School,Buchanan School,3717 Centre Street NW,Calgary,AB,Elementary,N,Provincial Data,9207,N,Y,N,N,2021/02/28,T2E2Y2,1382346,-114.06314780701442,51.0856296597672,"(51.0856296597672, -114.06314780701442)"
Eric Harvie,The Calgary School Division,Public School,Eric Harvie School,357 Tuscany Drive NW,Calgary,AB,Elementary,N,Provincial Data,2031,N,Y,N,N,2021/02/28,T3L3C9,2365208,-114.25111112290344,51.128041877740785,"(51.128041877740785, -114.25111112290344)"
Southeast Elementary Campus,Foundations for the Future Charter Academy Charter School Society,Charter,Southeast Elementary Campus,9711 Academy Drive SE,Calgary,AB,Elementary,N,Provincial Data,1348,N,Y,N,N,2021/02/28,T2J1A9,1371038,-114.04540628449004,50.96724192597066,"(50.96724192597066, -114.04540628449004)"
Queen Elizabeth,The Calgary School Division,Public School,Queen Elizabeth School,402 - 18 Street N.W.,Calgary,AB,Elementary,N,Provincial Data,9227,N,Y,N,N,2021/02/28,T2N2G5,1382925,-114.10196112147355,51.055458406375095,"(51.055458406375095, -114.10196112147355)"
Webber Academy,Webber Academy Foundation,Private School,Webber Academy,1515 - 93 Street SW,Calgary,AB,Elementary/Junior High/Senior High,N,Provincial Data,21,N,Y,Y,Y,2021/02/28,T3H4A8,1588053,-114.22502207141224,51.04412145405013,"(51.04412145405013, -114.22502207141224)"
Ernest Manning High,The Calgary School Division,Public School,Ernest Manning High School,20 Springborough Blvd. SW,Calgary,AB,Senior High,N,Provincial Data,9826,N,N,N,Y,2021/02/28,T3H0N7,1539496,-114.18923533988372,51.03595702416803,"(51.03595702416803, -114.18923533988372)"
Dr. George Stanley,The Calgary School Division,Public School,Dr. George Stanley School,585 Cranston Dr. SE,Calgary,AB,Elementary/Junior High,N,Provincial Data,2084,N,Y,Y,N,2021/02/28,T3M0J4,2417018,-113.97828885592264,50.88277715461323,"(50.88277715461323, -113.97828885592264)"
University of Calgary - Foothills Campus,,Post Secondary,,,Calgary,AB,,Y,Post Secondary Data,,N,N,N,N,2021/02/28,T2N4N1,1557218,-114.13424545796528,51.066007367021676,"(51.066007367021676, -114.13424545796528)"
Dr. E. W. Coffin,The Calgary School Division,Public School,Dr. E. W. Coffin School,5615 Barrett Drive N.W.,Calgary,AB,Elementary,N,Provincial Data,9214,N,Y,N,N,2021/02/28,T2L1W4,1383141,-114.13479912704769,51.103752632520376,"(51.103752632520376, -114.13479912704769)"
Haysboro,The Calgary School Division,Public School,Haysboro School,1123 - 87 Avenue S.W.,Calgary,AB,Elementary,N,Provincial Data,9316,N,Y,N,N,2021/02/28,T2V0W2,1382894,-114.08913577380609,50.97549517763054,"(50.97549517763054, -114.08913577380609)"
"Calgary Islamic School, Omar Bin Al-Khattab Campus",The Palliser School Division,Public School,"Calgary Islamic School, Omar Bin Al-Khattab Campus",Omar Bin Al-Khattab Campus 225 28 Street SE,Calgary,AB,Elementary/Junior High,N,Provincial Data,1722,N,Y,Y,N,2021/02/28,T2A5K4,1376120,-113.99380976995295,51.05074503519509,"(51.05074503519509, -113.99380976995295)"
Banting and Best,The Calgary School Division,Public School,Banting and Best School,1819 - 66 Avenue S.E.,Calgary,AB,Elementary,N,Provincial Data,9369,N,Y,N,N,2021/02/28,T2C2K5,1382908,-114.01385382321716,50.993726042518,"(50.993726042518, -114.01385382321716)"
All Saints,The Calgary Roman Catholic Separate School Division,Separate School,All Saints School,729 Legacy Village Rd SE,Calgary,AB,Senior High,N,Provincial Data,2175,N,N,N,Y,2021/02/28,T2X4K9,2443114,-114.02675675975492,50.85930381494731,"(50.85930381494731, -114.02675675975492)"
Lord Beaverbrook High,The Calgary School Division,Public School,Lord Beaverbrook High School,9019 Fairmount Drive S.E.,Calgary,AB,Senior High,N,Provincial Data,9850,N,N,N,Y,2021/02/28,T2H0Z4,1413860,-114.06163955901133,50.97309981986913,"(50.97309981986913, -114.06163955901133)"
Falconridge,The Calgary School Division,Public School,Falconridge School,1331 Falconridge Drive N.E.,Calgary,AB,Elementary,N,Provincial Data,9375,N,Y,N,N,2021/02/28,T3J1T4,1383222,-113.94543258045223,51.09936414236255,"(51.09936414236255, -113.94543258045223)"
Langevin,The Calgary School Division,Public School,Langevin School,107 - 6A Street N.E.,Calgary,AB,Elementary/Junior High,N,Provincial Data,9609,N,Y,Y,N,2021/02/28,T2E0B7,1382847,-114.04770961004157,51.05285065130275,"(51.05285065130275, -114.04770961004157)"
Douglasdale,The Calgary School Division,Public School,Douglasdale School,400 Douglas Park Blvd. S.E.,Calgary,AB,Elementary,N,Provincial Data,596,N,Y,N,N,2021/02/28,T2Z4A3,1382583,-113.9826487804958,50.93526299359368,"(50.93526299359368, -113.9826487804958)"
Maria Montessori School - cSPACE King Edward Location,"Maria Montessori Education Centre of Calgary, Ltd.",Private School,Maria Montessori School - cSPACE King Edward Location,cSPACE Projects 1721-29 Avenue SW,Calgary,AB,Unknown,N,Provincial Data,2167,N,N,N,N,2021/02/28,T2T6T7,1524096,-114.10088343789056,51.02726986042331,"(51.02726986042331, -114.10088343789056)"
Simons Valley,The Calgary School Division,Public School,Simons Valley School,375 Sandarac Drive N.W.,Calgary,AB,Elementary,N,Provincial Data,9383,N,Y,N,N,2021/02/28,T3K4B2,1383728,-114.10732595888565,51.13967813016459,"(51.13967813016459, -114.10732595888565)"
St. Jean Brebeuf,The Calgary Roman Catholic Separate School Division,Separate School,St. Jean Brebeuf School,5030 Northland Drive N.W.,Calgary,AB,Junior High,N,Provincial Data,8703,N,N,Y,N,2021/02/28,T2L2J6,1369132,-114.14022892058524,51.09789338393484,"(51.09789338393484, -114.14022892058524)"
Janus Academy (Holy Cross Site),Janus Academy Society,Private School,Janus Academy (Holy Cross Site),2223 Spiller Rd SE,Calgary,AB,Junior High/Senior High,N,Provincial Data,1323,N,N,Y,Y,2021/02/28,T2H1S1,1375426,-114.05629287207928,50.97743769717626,"(50.97743769717626, -114.05629287207928)"
Bridlewood,The Calgary School Division,Public School,Bridlewood School,207 Bridleridge Way S.W.,Calgary,AB,Elementary,N,Provincial Data,1498,N,Y,N,N,2021/02/28,T2Y0L4,1382189,-114.11066198234371,50.90238360612156,"(50.90238360612156, -114.11066198234371)"
Akiva Academy,Congregation House of Jacob-Mikveh Israel,Private School,Akiva Academy,140 Haddon Road S.W.,Calgary,AB,Elementary/Junior High,N,Provincial Data,9914,N,Y,Y,N,2021/02/28,T2V2Y3,1000918,-114.07782355013931,50.97327737890793,"(50.97327737890793, -114.07782355013931)"
Cranston,The Calgary School Division,Public School,Cranston School,205 Cranston Drive SE,Calgary,AB,Elementary,N,Provincial Data,1499,N,Y,N,N,2021/02/28,T3M1E8,1370431,-113.98724182663172,50.88678713843287,"(50.88678713843287, -113.98724182663172)"
Glamorgan,The Calgary School Division,Public School,Glamorgan School,50 Grafton Drive S.W.,Calgary,AB,Elementary/Junior High,N,Provincial Data,9121,N,Y,Y,N,2021/02/28,T3E4W3,1000915,-114.14539828714524,51.015379944068926,"(51.015379944068926, -114.14539828714524)"
Aurora Learning Calgary,Aurora Learning Foundation (Calgary),Private School,Aurora Learning Calgary,#137 5305 McCall Way NE,Calgary,AB,Elementary/Junior High/Senior High,N,Provincial Data,1397,N,Y,Y,Y,2021/02/28,T2E7N7,2304641,-114.00303449514637,51.10133931422609,"(51.10133931422609, -114.00303449514637)"
St. Gregory,The Calgary Roman Catholic Separate School Division,Separate School,St. Gregory School,5340 - 26 Avenue S.W.,Calgary,AB,Junior High,N,Provincial Data,8710,N,N,Y,N,2021/02/28,T3E0R6,1382519,-114.16047374152122,51.03113745402188,"(51.03113745402188, -114.16047374152122)"
Vista Heights,The Calgary School Division,Public School,Vista Heights School,2411 Vermillion Street N.E.,Calgary,AB,Elementary,N,Provincial Data,9239,N,Y,N,N,2021/02/28,T2E6J3,1376033,-114.01707356956825,51.073887238956885,"(51.073887238956885, -114.01707356956825)"
Taradale,The Calgary School Division,Public School,Taradale School,"170 Taravista Drive N.E,",Calgary,AB,Elementary,N,Provincial Data,1450,N,Y,N,N,2021/02/28,,1383515,-113.93775508268502,51.12125306210077,"(51.12125306210077, -113.93775508268502)"
Braeside,The Calgary School Division,Public School,Braeside School,1747 - 107 Avenue S.W.,Calgary,AB,Elementary,N,Provincial Data,9305,N,Y,N,N,2021/02/28,T2W0C3,1382885,-114.10169431546197,50.956673559277114,"(50.956673559277114, -114.10169431546197)"
Renfrew Educational Services - Child Development Centre,Renfrew Educational Services Society,Private School,Renfrew Educational Services - Child Development Centre,2050 - 21 Street N.E.,Calgary,AB,Unknown,N,Provincial Data,280,N,N,N,N,2021/02/28,,1380513,-114.14392908351746,51.07476523311914,"(51.07476523311914, -114.14392908351746)"
Bowcroft,The Calgary School Division,Public School,Bowcroft School,3940 - 73 Street N.W.,Calgary,AB,Elementary,N,Provincial Data,9111,N,Y,N,N,2021/02/28,T3B2L9,1382349,-114.19278889034004,51.0875590584316,"(51.0875590584316, -114.19278889034004)"
St. Augustine Elementary Junior High,The Calgary Roman Catholic Separate School Division,Separate School,St. Augustine Elementary Junior High School,7112 - 7 Street S.W.,Calgary,AB,Elementary/Junior High,N,Provincial Data,8708,N,Y,Y,N,2021/02/28,T2V1E9,1382905,-114.08077713043531,50.99111368914504,"(50.99111368914504, -114.08077713043531)"
St. Francis High,The Calgary Roman Catholic Separate School Division,Separate School,St. Francis High School,877 Northmount Drive N.W.,Calgary,AB,Senior High,N,Provincial Data,8902,N,N,N,Y,2021/02/28,,1382293,-114.10240754784752,51.08450658312066,"(51.08450658312066, -114.10240754784752)"
Vincent Massey,The Calgary School Division,Public School,Vincent Massey School,939 - 45 Street S.W.,Calgary,AB,Junior High,N,Provincial Data,9628,N,N,Y,N,2021/02/28,T3C2B9,1382130,-114.15342310390386,51.0440372581387,"(51.0440372581387, -114.15342310390386)"
Senator Patrick Burns,The Calgary School Division,Public School,Senator Patrick Burns School,2155 Chilcotin Road N.W.,Calgary,AB,Elementary/Junior High,N,Provincial Data,9640,N,Y,Y,N,2021/02/28,T2L0X2,1383123,-114.11553670016748,51.08821109631006,"(51.08821109631006, -114.11553670016748)"
West View,The Calgary School Division,Public School,West View School,Calgary Young Offender Centre 12626 - 85 Street N.W.,Calgary,AB,Junior High/Senior High,N,Provincial Data,9687,N,N,Y,Y,2021/02/28,T3R1J3,1557811,-114.20807048345276,51.165579390733726,"(51.165579390733726, -114.20807048345276)"
Ecole Terre des Jeunes,The Southern Francophone Education Region,Francophone,Ecole Terre des Jeunes,3720 - 42 Street NW,Calgary,AB,Elementary,N,Provincial Data,1364,N,Y,N,N,2021/02/28,T3A0C6,1382344,-114.14997269495294,51.0853094470369,"(51.0853094470369, -114.14997269495294)"
Corpus Christi,The Calgary Roman Catholic Separate School Division,Separate School,Corpus Christi School,5607 Thornton Road N.W.,Calgary,AB,Elementary,N,Provincial Data,8501,N,Y,N,N,2021/02/28,T2K3C1,1384094,-114.0680318288637,51.101596937173056,"(51.101596937173056, -114.0680318288637)"
Calgary German Language School Society,Calgary German Language School Society,Private School,Calgary German Language School Society,PO Box 84114   Market Mall RPO,Calgary,AB,Junior High/Senior High,N,Provincial Data,9925,N,N,Y,Y,2021/02/28,T3B2L9,1382349,-114.19278889034004,51.0875590584316,"(51.0875590584316, -114.19278889034004)"
St. Patrick,The Calgary Roman Catholic Separate School Division,Separate School,St. Patrick School,6006 Rundlehorn Drive N.E.,Calgary,AB,Elementary,N,Provincial Data,8507,N,Y,N,N,2021/02/28,T1Y2X1,1383007,-113.94670276869337,51.07198995436679,"(51.07198995436679, -113.94670276869337)"
Horizon Heritage Arabic,Horizon Academy Institute,Private School,Horizon Heritage Arabic School,"Building B4, 2452 Battleford A",Calgary,AB,Senior High,N,Provincial Data,1913,N,N,N,Y,2021/02/28,T3C3P1,1376393,-114.1398144283913,51.03967370693621,"(51.03967370693621, -114.1398144283913)"
Terrace Road,The Calgary School Division,Public School,Terrace Road School,2103 - 46 Street N.W.,Calgary,AB,Elementary,N,Provincial Data,9138,N,Y,N,N,2021/02/28,T3B1B3,1376539,-114.1579317405693,51.07450187846564,"(51.07450187846564, -114.1579317405693)"
Rundle,The Calgary School Division,Public School,Rundle School,4120 Rundlehorn Drive N.E.,Calgary,AB,Elementary,N,Provincial Data,9358,N,Y,N,N,2021/02/28,T1Y4W9,1381142,-113.9737217405466,51.07118231533872,"(51.07118231533872, -113.9737217405466)"
David Thompson,The Calgary School Division,Public School,David Thompson School,9320 Arbour Crescent S.E.,Calgary,AB,Elementary/Junior High,N,Provincial Data,9641,N,Y,Y,N,2021/02/28,T2J1K4,1382277,-114.05465136499893,50.96940358851814,"(50.96940358851814, -114.05465136499893)"
Holy Child,The Calgary Roman Catholic Separate School Division,Separate School,Holy Child School,31 Silverado Terrace SW,Calgary,AB,Elementary/Junior High,N,Provincial Data,2160,N,Y,Y,N,2021/02/28,T2X0K4,2382710,-114.08313812292558,50.88618302412995,"(50.88618302412995, -114.08313812292558)"
Ascension of Our Lord,The Calgary Roman Catholic Separate School Division,Separate School,Ascension of Our Lord,509 Harvest Hills Drive N.E.,Calgary,AB,Elementary/Junior High,N,Provincial Data,333,N,Y,Y,N,2021/02/28,T3K4G9,1383730,-114.05968876099476,51.14695688983867,"(51.14695688983867, -114.05968876099476)"
Catherine Nichols Gunn,The Calgary School Division,Public School,Catherine Nichols Gunn School,6625 - 4 Street N.E.,Calgary,AB,Elementary,N,Provincial Data,9232,N,Y,N,N,2021/02/28,T2K5C7,1378455,-114.05789503920653,51.11164371544339,"(51.11164371544339, -114.05789503920653)"
Pineridge,The Calgary School Division,Public School,Pineridge School,1927 - 61 Street N.E.,Calgary,AB,Elementary,N,Provincial Data,9360,N,Y,N,N,2021/02/28,T1Y4W6,1601009,-113.94522928922134,51.070324796585155,"(51.070324796585155, -113.94522928922134)"
Panorama Hills,The Calgary School Division,Public School,Panorama Hills School,1057 Panorama Hills Dr N.E,Calgary,AB,Elementary,N,Provincial Data,1452,N,Y,N,N,2021/02/28,T3K0S4,1375881,-114.08592144910396,51.155814013156686,"(51.155814013156686, -114.08592144910396)"
W.O. Mitchell,The Calgary School Division,Public School,W.O. Mitchell School,511 Silvergrove Drive N.W.,Calgary,AB,Elementary,N,Provincial Data,9257,N,Y,N,N,2021/02/28,T3B4R9,1378946,-114.19428748015133,51.11369077417258,"(51.11369077417258, -114.19428748015133)"
St. Michael,The Calgary Roman Catholic Separate School Division,Separate School,St. Michael School,4511 - 8 Avenue S.W.,Calgary,AB,Elementary/Junior High,N,Provincial Data,8717,N,Y,Y,N,2021/02/28,T3C0G9,1382837,-114.15157745417609,51.044784910360725,"(51.044784910360725, -114.15157745417609)"
Our Lady of Fatima,The Calgary Roman Catholic Separate School Division,Separate School,Our Lady of Fatima,6320 Taralea Park NE,Calgary,AB,Elementary,N,Provincial Data,1226,N,Y,N,N,2021/02/28,T3J5C4,1384102,-113.9379102324334,51.11632174668843,"(51.11632174668843, -113.9379102324334)"
Robert Warren,The Calgary School Division,Public School,Robert Warren School,12424 Elbow Drive S.W.,Calgary,AB,Elementary/Junior High,N,Provincial Data,9655,N,Y,Y,N,2021/02/28,T2W1H2,1382585,-114.08481701493501,50.94250672212092,"(50.94250672212092, -114.08481701493501)"
Calgary Jewish Academy,The Calgary Jewish Academy,Private School,Calgary Jewish Academy,6700 Kootenay Street S.W.,Calgary,AB,Elementary/Junior High,N,Provincial Data,9911,N,Y,Y,N,2021/02/28,T2V1P7,1382195,-114.0926064832227,50.99349472299216,"(50.99349472299216, -114.0926064832227)"
St. Elizabeth Seton,The Calgary Roman Catholic Separate School Division,Separate School,St. Elizabeth Seton,10845 Hidden Valley Drive,Calgary,AB,Elementary/Junior High,N,Provincial Data,588,N,Y,Y,N,2021/02/28,T3A6K3,1524239,-114.11043639110667,51.151101831682396,"(51.151101831682396, -114.11043639110667)"
Branton,The Calgary School Division,Public School,Branton School,2103 - 20 Street N.W.,Calgary,AB,Elementary/Junior High,N,Provincial Data,9621,N,Y,Y,N,2021/02/28,T2M3W1,1381141,-114.10903047499593,51.07124691272822,"(51.07124691272822, -114.10903047499593)"
Divine Mercy,The Calgary Roman Catholic Separate School Division,Separate School,Divine Mercy School,228 Mahogany Blvd. SE,Calgary,AB,Elementary,N,Provincial Data,2189,N,Y,N,N,2021/02/28,T3M1M5,2454686,-113.9239578308931,50.9015566152245,"(50.9015566152245, -113.9239578308931)"
Simon Fraser,The Calgary School Division,Public School,Simon Fraser School,5215 - 33 Street N.W.,Calgary,AB,Elementary/Junior High,N,Provincial Data,9646,N,Y,Y,N,2021/02/28,T2L1V3,1383906,-114.13655045217867,51.10031940846632,"(51.10031940846632, -114.13655045217867)"
St. Luke Bilingual Elementary,The Calgary Roman Catholic Separate School Division,Separate School,St. Luke Bilingual Elementary School,"1232 Northmount Dr., N.W.",Calgary,AB,Elementary,N,Provincial Data,8521,N,Y,N,N,2021/02/28,T2L0E1,1383126,-114.12268683334047,51.09082672297515,"(51.09082672297515, -114.12268683334047)"
Deer Run,The Calgary School Division,Public School,Deer Run School,2127 - 146 Avenue S.E.,Calgary,AB,Elementary,N,Provincial Data,9265,N,Y,N,N,2021/02/28,T2J6P8,1369586,-114.00945454338842,50.921555427743264,"(50.921555427743264, -114.00945454338842)"
St. Wilfrid Elementary,The Calgary Roman Catholic Separate School Division,Separate School,St. Wilfrid Elementary School,4225 - 44 Avenue N.E.,Calgary,AB,Elementary,N,Provincial Data,8541,N,Y,N,N,2021/02/28,T1Y4Y1,1383127,-113.96899426430878,51.091926538839864,"(51.091926538839864, -113.96899426430878)"
St. Bonaventure,The Calgary Roman Catholic Separate School Division,Separate School,St. Bonaventure School,1710 Acadia Drive S.E.,Calgary,AB,Junior High,N,Provincial Data,8721,N,N,Y,N,2021/02/28,T2J3X8,1382261,-114.04718120951901,50.931737061001265,"(50.931737061001265, -114.04718120951901)"
St. Rupert,The Calgary Roman Catholic Separate School Division,Separate School,St. Rupert School,111 Rundlehill Drive N.E.,Calgary,AB,Elementary,N,Provincial Data,8548,N,Y,N,N,2021/02/28,T1Y2W9,1383023,-113.97052825760973,51.07689761729061,"(51.07689761729061, -113.97052825760973)"
Sir John Franklin,The Calgary School Division,Public School,Sir John Franklin School,2215 - 8 Avenue N.E.,Calgary,AB,Elementary/Junior High,N,Provincial Data,9649,N,Y,Y,N,2021/02/28,T2E0T7,1380739,-114.00792305868566,51.05967721842337,"(51.05967721842337, -114.00792305868566)"
Calgary Academy,Calgary Academy Society,Private School,Calgary Academy,1677 93 rd Street S.W.,Calgary,AB,Elementary/Junior High/Senior High,N,Provincial Data,9908,N,Y,Y,Y,2021/02/28,T3H0R3,1382819,-114.2242479372351,51.03943008461902,"(51.03943008461902, -114.2242479372351)"
Somerset,The Calgary School Division,Public School,Somerset School,150 Somerset Manor S.W.,Calgary,AB,Elementary,N,Provincial Data,1099,N,Y,N,N,2021/02/28,T2Y4S2,1382186,-114.08488512449149,50.89740582845411,"(50.89740582845411, -114.08488512449149)"
Canadian Montessori,The Canadian Montessori School Ltd.,Private School,Canadian Montessori School,1112 70 Avenue S.W.,Calgary,AB,Elementary,N,Provincial Data,1981,N,Y,N,N,2021/02/28,T2V0P6,1186607,-114.08826216557271,50.99074473227965,"(50.99074473227965, -114.08826216557271)"
New Brighton,The Calgary School Division,Public School,New Brighton School,30 New Brighton Drive SE,Calgary,AB,Elementary,N,Provincial Data,2072,N,Y,N,N,2021/02/28,T2Z4B2,2390336,-113.95370783992476,50.91947717431829,"(50.91947717431829, -113.95370783992476)"
Marlborough,The Calgary School Division,Public School,Marlborough School,4711 Maryvale Drive N.E.,Calgary,AB,Elementary,N,Provincial Data,9322,N,Y,N,N,2021/02/28,T2A3A1,1382216,-113.96549964706662,51.05608356912292,"(51.05608356912292, -113.96549964706662)"
AADAC Youth Services,The Calgary School Division,Public School,AADAC Youth Services,1005 - 17 Street N.W.,Calgary,AB,Unknown,N,Provincial Data,9573,N,N,N,N,2021/02/28,T2N2E5,1374397,-114.10169198321243,51.061105337955944,"(51.061105337955944, -114.10169198321243)"
West Dover,The Calgary School Division,Public School,West Dover School,3113 - 30 Avenue S.E.,Calgary,AB,Elementary,N,Provincial Data,9357,N,Y,N,N,2021/02/28,T2B0G9,1382974,-113.99064795938101,51.02632922422375,"(51.02632922422375, -113.99064795938101)"
Eastside Christian Academy,Eastside City Church and Missionary Society,Private School,Eastside Christian Academy,1320 Abbeydale Drive SE,Calgary,AB,Elementary/Junior High/Senior High,N,Provincial Data,478,N,Y,Y,Y,2021/02/28,T2A7L8,1382139,-113.93022001134355,51.05195232838787,"(51.05195232838787, -113.93022001134355)"
Renert,The Renert School Foundation,Private School,Renert School,14 Royal Vista Link NW,Calgary,AB,Elementary/Junior High/Senior High,N,Provincial Data,1747,N,Y,Y,Y,2021/02/28,T3R0K4,2260486,-114.20283649964796,51.15183701640225,"(51.15183701640225, -114.20283649964796)"
St. Margaret,The Calgary Roman Catholic Separate School Division,Separate School,St. Margaret School,3320 Carol Drive N.W.,Calgary,AB,Elementary/Junior High,N,Provincial Data,8714,N,Y,Y,N,2021/02/28,T2L0K7,1382342,-114.09763740278484,51.08213531925243,"(51.08213531925243, -114.09763740278484)"
Erin Woods,The Calgary School Division,Public School,Erin Woods School,25 Erin Park Drive SE,Calgary,AB,Elementary,N,Provincial Data,9269,N,Y,N,N,2021/02/28,T2B2Z9,1382286,-113.96577738421506,51.02269972468891,"(51.02269972468891, -113.96577738421506)"
Westgate,The Calgary School Division,Public School,Westgate School,150 Westminster Drive S.W.,Calgary,AB,Elementary,N,Provincial Data,9140,N,Y,N,N,2021/02/28,T3C2T3,1000910,-114.15919984034448,51.0444881458484,"(51.0444881458484, -114.15919984034448)"
Radisson Park,The Calgary School Division,Public School,Radisson Park School,2805 Radcliffe Drive S.E.,Calgary,AB,Elementary,N,Provincial Data,1334,N,Y,N,N,2021/02/28,T2A0C8,1382841,-113.99223298724004,51.046161363175905,"(51.046161363175905, -113.99223298724004)"
The Hamptons,The Calgary School Division,Public School,The Hamptons School,10330 Hamptons Boulevard N.W.,Calgary,AB,Elementary,N,Provincial Data,387,N,Y,N,N,2021/02/28,T3A6G2,1383519,-114.14850698064649,51.143445733495945,"(51.143445733495945, -114.14850698064649)"
Discovering Choices 2,The Calgary School Division,Public School,Discovering Choices 2,#92 116 3800 Memorial Dr NE,Calgary,AB,Senior High,N,Provincial Data,1161,N,N,N,Y,2021/02/28,T2A5H5,1374532,-113.9784098464004,51.055338754642,"(51.055338754642, -113.9784098464004)"
Bob Edwards,The Calgary School Division,Public School,Bob Edwards School,4424 Marlborough Drive N.E.,Calgary,AB,Elementary/Junior High,N,Provincial Data,9623,N,Y,Y,N,2021/02/28,T2A2Z5,1381386,-113.96877372841975,51.05992939967567,"(51.05992939967567, -113.96877372841975)"
École La Mosaïque,The Southern Francophone Education Region,Francophone,École La Mosaïque,199 Martindale Blvd NE,Calgary,AB,Elementary,N,Provincial Data,1365,N,Y,N,N,2021/02/28,T3J3G4,2365672,-113.95751177577944,51.11376670342173,"(51.11376670342173, -113.95751177577944)"
Chinook Learning Services,The Calgary School Division,Public School,Chinook Learning Services,"2336 53 Ave SW, Calgary, T3E 1",Calgary,AB,Senior High,N,Provincial Data,9817,N,N,N,Y,2021/02/28,T2M0T2,1381133,-114.06542562664656,51.06858162243973,"(51.06858162243973, -114.06542562664656)"
Young Adult Program,The Calgary School Division,Public School,Young Adult Program,805 - 37 Street NW,Calgary,AB,Elementary/Junior High/Senior High,N,Provincial Data,9512,N,Y,Y,Y,2021/02/28,T2N2T9,1586600,-114.13441071716392,51.064668759076035,"(51.064668759076035, -114.13441071716392)"
MAC Islamic School - Calgary Chapter,Muslim Association of Canada,Private School,MAC Islamic School - Calgary Chapter,64 12 street NE,Calgary,AB,Elementary,N,Provincial Data,2178,N,Y,N,N,2021/02/28,T3G1B5,1378667,-114.1799393555714,51.11482355930169,"(51.11482355930169, -114.1799393555714)"
Ian Bazalgette,The Calgary School Division,Public School,Ian Bazalgette School,3909 - 26 Avenue S.E.,Calgary,AB,Elementary/Junior High,N,Provincial Data,9613,N,Y,Y,N,2021/02/28,T2B0C6,1382832,-113.97767814974473,51.02983255202813,"(51.02983255202813, -113.97767814974473)"
Woodbine,The Calgary School Division,Public School,Woodbine School,27 Woodfield Way S.W.,Calgary,AB,Elementary,N,Provincial Data,9266,N,Y,N,N,2021/02/28,T2W5E1,1370184,-114.1289426450024,50.93653288745854,"(50.93653288745854, -114.1289426450024)"
Mother Mary Greene,The Calgary Roman Catholic Separate School Division,Separate School,Mother Mary Greene School,115 Edenwold Drive N.W.,Calgary,AB,Elementary,N,Provincial Data,8553,N,Y,N,N,2021/02/28,T3A3S8,1369124,-114.13924460893604,51.124306794047094,"(51.124306794047094, -114.13924460893604)"
Renfrew Educational Services-Bowness Centre,Renfrew Educational Services Society,Private School,Renfrew Educational Services-Bowness Centre,2050 - 21 Street N.E.,Calgary,AB,Unknown,N,Provincial Data,437,N,N,N,N,2021/02/28,T3B2B2,1403804,-114.21192443519641,51.096329284954884,"(51.096329284954884, -114.21192443519641)"
James Short Memorial,The Calgary School Division,Public School,James Short Memorial School,6333 - 5 Avenue S.E.,Calgary,AB,Elementary,N,Provincial Data,9364,N,Y,N,N,2021/02/28,T2A3V7,1382928,-113.94279830389915,51.04786053613119,"(51.04786053613119, -113.94279830389915)"
Yufeng Chinese,Yufeng Chinese School Centre,Private School,Yufeng Chinese School,169 Citadel Ridge Close NW,Calgary,AB,Elementary/Junior High/Senior High,N,Provincial Data,1048,N,Y,Y,Y,2021/02/28,T3G4V5,1094950,-114.18346923619207,51.14609434618282,"(51.14609434618282, -114.18346923619207)"
Sundance,The Calgary School Division,Public School,Sundance School,200 Sunmills Drive S.E.,Calgary,AB,Elementary,N,Provincial Data,9267,N,Y,N,N,2021/02/28,T2X2N9,1382957,-114.04681306876033,50.90066056931126,"(50.90066056931126, -114.04681306876033)"
Louise Dean,The Calgary School Division,Public School,Louise Dean School,120 - 23 Street N.W.,Calgary,AB,Junior High/Senior High,N,Provincial Data,9626,N,N,Y,Y,2021/02/28,T2N2P1,1382214,-114.11468247256505,51.05315071429952,"(51.05315071429952, -114.11468247256505)"
Trinity Christian,The Palliser School Division,Public School,Trinity Christian School,"#100, 295 Midpark Way S.E.",Calgary,AB,Elementary/Junior High,N,Provincial Data,9973,N,Y,Y,N,2021/02/28,T2X2A8,1551635,-114.06224040398533,50.90932823045676,"(50.90932823045676, -114.06224040398533)"
Colonel Irvine,The Calgary School Division,Public School,Colonel Irvine School,412 Northmount Drive N.W.,Calgary,AB,Elementary/Junior High,N,Provincial Data,9622,N,Y,Y,N,2021/02/28,T2K3H6,1384087,-114.07993205475249,51.09243676151793,"(51.09243676151793, -114.07993205475249)"
West Springs,The Calgary School Division,Public School,West Springs School,8999 Wentworth Ave S.W.,Calgary,AB,Elementary,N,Provincial Data,1521,N,Y,N,N,2021/02/28,T3H0P7,1377130,-114.21674984764452,51.058437778528116,"(51.058437778528116, -114.21674984764452)"
Sunnyside,The Calgary School Division,Public School,Sunnyside School,211 - 7 Street N.W.,Calgary,AB,Elementary,N,Provincial Data,9234,N,Y,N,N,2021/02/28,T2N1S2,1381198,-114.07954405545334,51.056562375689474,"(51.056562375689474, -114.07954405545334)"
Our Lady of Lourdes,The Calgary Roman Catholic Separate School Division,Separate School,Our Lady of Lourdes,1916 2nd Street SW,Calgary,AB,Elementary/Junior High,N,Provincial Data,598,N,Y,Y,N,2021/02/28,T2S1S3,1379069,-114.06816034687647,51.035673117987145,"(51.035673117987145, -114.06816034687647)"
Cappy Smart,The Calgary School Division,Public School,Cappy Smart School,5808 Madigan Drive N.E.,Calgary,AB,Elementary,N,Provincial Data,9353,N,Y,N,N,2021/02/28,T2A4P5,1382334,-113.94506774810269,51.06369308063351,"(51.06369308063351, -113.94506774810269)"
St. Bede Elementary,The Calgary Roman Catholic Separate School Division,Separate School,St. Bede Elementary School,333 Bermuda Drive N.W.,Calgary,AB,Elementary,N,Provincial Data,8545,N,Y,N,N,2021/02/28,T3K2J5,1370600,-114.08284602085331,51.13167374028915,"(51.13167374028915, -114.08284602085331)"
Chris Akkerman,The Calgary School Division,Public School,Chris Akkerman School,5004 Marbank Drive N.E.,Calgary,AB,Elementary,N,Provincial Data,9339,N,Y,N,N,2021/02/28,T2A3J6,1382333,-113.96301096677269,51.06375727132319,"(51.06375727132319, -113.96301096677269)"
Georges P. Vanier,The Calgary School Division,Public School,Georges P. Vanier School,509 - 32 Avenue N.E.,Calgary,AB,Elementary/Junior High,N,Provincial Data,9635,N,Y,Y,N,2021/02/28,T2E2H3,1382291,-114.05206912347656,51.08060531306576,"(51.08060531306576, -114.05206912347656)"
Grant MacEwan,The Calgary School Division,Public School,Grant MacEwan School,180 Falshire Drive N.E.,Calgary,AB,Elementary,N,Provincial Data,9378,N,Y,N,N,2021/02/28,T3J3A5,1383229,-113.94295031401309,51.10642762038874,"(51.10642762038874, -113.94295031401309)"
Calgary Christian,The Palliser School Division,Public School,Calgary Christian School,2839 - 49 Street S.W.,Calgary,AB,Elementary,N,Provincial Data,9903,N,Y,N,N,2021/02/28,T3E3X9,1382507,-114.15895063553576,51.02746774548578,"(51.02746774548578, -114.15895063553576)"
Glenmore Christian Academy Elementary,GCA Educational Society,Private School,Glenmore Christian Academy Elementary,16520 - 24 Street S.W.,Calgary,AB,Elementary,N,Provincial Data,9928,N,Y,N,N,2021/02/28,T2Y4W2,1590356,-114.1152537080784,50.903979506197274,"(50.903979506197274, -114.1152537080784)"
Citadel Park,The Calgary School Division,Public School,Citadel Park School,808 Citadel Drive NW,Calgary,AB,Elementary,N,Provincial Data,1332,N,Y,N,N,2021/02/28,T3G4B8,1383729,-114.17423451824506,51.14545105898916,"(51.14545105898916, -114.17423451824506)"
FFCA High School Campus,Foundations for the Future Charter Academy Charter School Society,Charter,FFCA High School Campus,2116 McKay Road N.W.,Calgary,AB,Junior High/Senior High,N,Provincial Data,12,N,N,Y,Y,2021/02/28,T3B1C7,1380147,-114.15192779878768,51.069581060122125,"(51.069581060122125, -114.15192779878768)"
Westbrook Outreach,The Calgary School Division,Public School,Westbrook Outreach,"#3, 1002 - 37 Street S.W",Calgary,AB,Senior High,N,Provincial Data,1260,N,N,N,Y,2021/02/28,T3C1S1,1585948,-114.14030684447422,51.04428798607457,"(51.04428798607457, -114.14030684447422)"
William Aberhart High,The Calgary School Division,Public School,William Aberhart High School,3009 Morley Trail N.W.,Calgary,AB,Senior High,N,Provincial Data,9829,N,N,N,Y,2021/02/28,T2M4G9,1382288,-114.11533747920511,51.07866950960592,"(51.07866950960592, -114.11533747920511)"
Father Scollen,The Calgary Roman Catholic Separate School Division,Separate School,Father Scollen School,6839 Temple Drive N.E.,Calgary,AB,Elementary/Junior High,N,Provincial Data,8730,N,Y,Y,N,2021/02/28,T1Y5N4,1384090,-113.94196158175765,51.0930202653202,"(51.0930202653202, -113.94196158175765)"
Calgary Quest,Calgary Quest Children's Society,Private School,Calgary Quest School,3405 Spruce Drive S.W. c/o Spruce Cliff Elementary,Calgary,AB,Elementary/Junior High/Senior High,N,Provincial Data,5398,N,Y,Y,Y,2021/02/28,T3C0A5,1382146,-114.13663866225768,51.04972149625456,"(51.04972149625456, -114.13663866225768)"
Holy Angels,The Calgary Roman Catholic Separate School Division,Separate School,Holy Angels School,275 Riverglen Drive SE,Calgary,AB,Elementary,N,Provincial Data,389,N,Y,N,N,2021/02/28,T2C3T5,1382636,-114.0100177139546,50.974095342521984,"(50.974095342521984, -114.0100177139546)"
St. Peter Elementary,The Calgary Roman Catholic Separate School Division,Separate School,St. Peter Elementary School,720 - 58 Street S.E.,Calgary,AB,Elementary,N,Provincial Data,8543,N,Y,N,N,2021/02/28,T2A5L9,1382842,-113.9491070038722,51.04618504013325,"(51.04618504013325, -113.9491070038722)"
Filipino Language and Cultural School of Calgary,Philippine Cultural Center Foundation (Calgary),Private School,Filipino Language and Cultural School of Calgary,Bay 204 & 206 4656 Westwinds Dr NE,Calgary,AB,Unknown,N,Provincial Data,1440,N,N,N,N,2021/02/28,T3J3Z5,1374646,-113.96780043824887,51.100646976645564,"(51.100646976645564, -113.96780043824887)"
SAIT - Art Smith Aero Centre,,Post Secondary,,,Calgary,AB,,Y,Post Secondary Data,,N,N,N,N,2021/02/28,T2E9B5,1374654,-114.00545627006355,51.10115940461863,"(51.10115940461863, -114.00545627006355)"
St. Helena,The Calgary Roman Catholic Separate School Division,Separate School,St. Helena School,320 - 64 Avenue N.W.,Calgary,AB,Junior High,N,Provincial Data,8711,N,N,Y,N,2021/02/28,T2K0L8,1384097,-114.06776192397147,51.111506695433164,"(51.111506695433164, -114.06776192397147)"
Huntington Hills,The Calgary School Division,Public School,Huntington Hills School,820 - 64 Avenue N.W.,Calgary,AB,Elementary,N,Provincial Data,9219,N,Y,N,N,2021/02/28,T2K0M5,1383510,-114.07745685947732,51.11220898218321,"(51.11220898218321, -114.07745685947732)"
Dr. Gordon Townsend,The Calgary School Division,Public School,Dr. Gordon Townsend School,28 Oki Drive NW,Calgary,AB,Elementary/Junior High/Senior High,N,Provincial Data,9886,N,Y,Y,Y,2021/02/28,T3B6A8,1380615,-114.14834556903074,51.07449452086541,"(51.07449452086541, -114.14834556903074)"
Holy Trinity,The Calgary Roman Catholic Separate School Division,Separate School,Holy Trinity School,1717 - 41 Street S.E.,Calgary,AB,Elementary,N,Provincial Data,8506,N,Y,N,N,2021/02/28,T2A1L2,1382817,-113.9749455922452,51.03897000809795,"(51.03897000809795, -113.9749455922452)"
Father Doucet,The Calgary Roman Catholic Separate School Division,Separate School,Father Doucet School,65 Shannon Drive S.W.,Calgary,AB,Elementary,N,Provincial Data,8551,N,Y,N,N,2021/02/28,T2Y2T5,1382252,-114.08516887028918,50.90934423016021,"(50.90934423016021, -114.08516887028918)"
Dr. Roberta Bondar,The Calgary School Division,Public School,Dr. Roberta Bondar School,1580 Strathcona Drive,Calgary,AB,Elementary,N,Provincial Data,2054,N,Y,N,N,2021/02/28,T3H5B1,2440324,-114.20553045185602,51.05033672369609,"(51.05033672369609, -114.20553045185602)"
Mount Royal University - Lincoln Park Campus,,Post Secondary,,,Calgary,AB,,Y,Post Secondary Data,,N,N,N,N,2021/02/28,T3E6K6,1537443,-114.13272034345307,51.01280496081857,"(51.01280496081857, -114.13272034345307)"
Bishop McNally High,The Calgary Roman Catholic Separate School Division,Separate School,Bishop McNally High School,5700 Falconridge Boulevard N.E,Calgary,AB,Senior High,N,Provincial Data,8907,N,N,N,Y,2021/02/28,T3J3N4,1383227,-113.95370587813335,51.10303042065591,"(51.10303042065591, -113.95370587813335)"
Banff Trail,The Calgary School Division,Public School,Banff Trail School,3232 Cochrane Road N.W.,Calgary,AB,Elementary,N,Provincial Data,9202,N,Y,N,N,2021/02/28,T2M4J3,1383034,-114.11675875440444,51.08163947732653,"(51.08163947732653, -114.11675875440444)"
Joane Cardinal-Schubert High,The Calgary School Division,Public School,Joane Cardinal-Schubert High School,19480-45 Street SE,Calgary,AB,Senior High,N,Provincial Data,2180,N,N,N,Y,2021/02/28,T3M2P9,2529035,-113.94401042589116,50.87802220548302,"(50.87802220548302, -113.94401042589116)"
Jack James High,The Calgary School Division,Public School,Jack James High School,5105 - 8 Avenue S.E.,Calgary,AB,Senior High,N,Provincial Data,9856,N,N,N,Y,2021/02/28,T2A4M1,1382835,-113.9603709219802,51.04456881302903,"(51.04456881302903, -113.9603709219802)"
Highwood,The Calgary School Division,Public School,Highwood School,11 Holmwood Avenue N.W.,Calgary,AB,Elementary,N,Provincial Data,9217,N,Y,N,N,2021/02/28,T2K2G5,1383129,-114.07653283629118,51.09224356654587,"(51.09224356654587, -114.07653283629118)"
National Sport,The Calgary School Division,Public School,National Sport School,Suite 110 151 Canada Olympic Road SW,Calgary,AB,Junior High/Senior High,N,Provincial Data,9830,N,N,Y,Y,2021/02/28,T3B6B7,1557802,-114.22102650153242,51.08479481248623,"(51.08479481248623, -114.22102650153242)"
Juno Beach Academy of Canadian Studies,The Calgary School Division,Public School,Juno Beach Academy of Canadian Studies,315 - 86 Avenue SE,Calgary,AB,Unknown,N,Provincial Data,1125,N,N,N,N,2021/02/28,T2H1Z2,1382500,-114.06506248328446,50.97532111856723,"(50.97532111856723, -114.06506248328446)"
Auburn Bay,The Calgary School Division,Public School,Auburn Bay School,7 Auburn Bay Avenue SE,Calgary,AB,Elementary,N,Provincial Data,2085,N,Y,N,N,2021/02/28,T3M0K6,2365185,-113.96232802358581,50.89675500363867,"(50.89675500363867, -113.96232802358581)"
Ethel M. Johnson,The Calgary School Division,Public School,Ethel M. Johnson School,255 Sackville Drive S.W.,Calgary,AB,Elementary,N,Provincial Data,9310,N,Y,N,N,2021/02/28,T2W0W7,1382813,-114.08903891122489,50.955473385203646,"(50.955473385203646, -114.08903891122489)"
Northeast Elementary Campus,Foundations for the Future Charter Academy Charter School Society,Charter,Northeast Elementary Campus,1140 Mayland Drive NE,Calgary,AB,Elementary,N,Provincial Data,1349,N,Y,N,N,2021/02/28,T2E6C8,1380950,-114.0112906602318,51.06419425657124,"(51.06419425657124, -114.0112906602318)"
Dr. J. K. Mulloy,The Calgary School Division,Public School,Dr. J. K. Mulloy School,7440 - 10 Street N.W.,Calgary,AB,Elementary,N,Provincial Data,9242,N,Y,N,N,2021/02/28,T2K1H6,1384106,-114.07996898891147,51.119225067265795,"(51.119225067265795, -114.07996898891147)"
Copperfield,The Calgary School Division,Public School,Copperfield School,54 Copperstone Road SE,Calgary,AB,Elementary,N,Provincial Data,2086,N,Y,N,N,2021/02/28,T2Z0G7,2397273,-113.92880594668131,50.91483203792721,"(50.91483203792721, -113.92880594668131)"
Guardian Angel,The Calgary Roman Catholic Separate School Division,Separate School,Guardian Angel School,20 Aspen Hills Dr. SW,Calgary,AB,Elementary,N,Provincial Data,2156,N,Y,N,N,2021/02/28,T3H0G5,2392869,-114.21646538352098,51.04062872834203,"(51.04062872834203, -114.21646538352098)"
Italian School of Calgary,Centro Linguistico E Culturale Italiano Calgary,Private School,Italian School of Calgary,416-1 Avenue N.E.,Calgary,AB,Junior High/Senior High,N,Provincial Data,9926,N,N,Y,Y,2021/02/28,T2E0B4,1397336,-114.05314715222983,51.05374630295557,"(51.05374630295557, -114.05314715222983)"
Forest Lawn High,The Calgary School Division,Public School,Forest Lawn High School,1304 - 44 Street S.E.,Calgary,AB,Senior High,N,Provincial Data,9813,N,N,N,Y,2021/02/28,T2A1M8,1382833,-113.9689496478143,51.042403074671775,"(51.042403074671775, -113.9689496478143)"
Calgary Arts Academy,Calgary Arts Academy Society,Charter,Calgary Arts Academy,640 14th Avenue S.E.,Calgary,AB,Elementary/Junior High,N,Provincial Data,1126,N,Y,Y,N,2021/02/28,T2G1E8,2328062,-114.04924221170057,51.03940197866345,"(51.03940197866345, -114.04924221170057)"
Griffith Woods,The Calgary School Division,Public School,Griffith Woods School,7652 - 26 Avenue,Calgary,AB,Elementary/Junior High,N,Provincial Data,2147,N,Y,Y,N,2021/02/28,T3H3X2,2427822,-114.19474696299017,51.03097940794404,"(51.03097940794404, -114.19474696299017)"
Rosscarrock,The Calgary School Division,Public School,Rosscarrock School,1406 - 40 Street S.W.,Calgary,AB,Elementary,N,Provincial Data,9133,N,Y,N,N,2021/02/28,T3C1W7,1382823,-114.14478223145807,51.041216383098565,"(51.041216383098565, -114.14478223145807)"
Calgary Chinese Private,The Calgary Chinese Public School Society,Private School,Calgary Chinese Private School,126 2nd Avenue S.W,Calgary,AB,Senior High,N,Provincial Data,9963,N,N,N,Y,2021/02/28,T2P0B9,1362574,-114.06428792878233,51.05161459047532,"(51.05161459047532, -114.06428792878233)"
Rundle College Elementary,Rundle College Society,Private School,Rundle College Elementary School,7615 - 17 Ave SW,Calgary,AB,Elementary,N,Provincial Data,9979,N,Y,N,N,2021/02/28,T3H3W5,2362137,-114.19731968898843,51.03671308605097,"(51.03671308605097, -114.19731968898843)"
Clarence Sansom,The Calgary School Division,Public School,Clarence Sansom School,5840 - 24 Avenue N.E.,Calgary,AB,Junior High,N,Provincial Data,9682,N,N,Y,N,2021/02/28,T1Y6G4,1383016,-113.94919550351989,51.07461347536657,"(51.07461347536657, -113.94919550351989)"
River Valley School ECS,River Valley School Society,Private School,River Valley School ECS,3127 Bowwood Drive N.W.,Calgary,AB,Unknown,N,Provincial Data,1906,N,N,N,N,2021/02/28,T3B2E7,1376234,-114.1743440902455,51.079469412856646,"(51.079469412856646, -114.1743440902455)"
Renfrew Educational Services - Park Place Centre,Renfrew Educational Services Society,Private School,Renfrew Educational Services - Park Place Centre,2050 - 21 Street N.E.,Calgary,AB,Unknown,N,Provincial Data,281,N,N,N,N,2021/02/28,T2E6S5,1381134,-114.00829174988903,51.069616982582104,"(51.069616982582104, -114.00829174988903)"
Robert Thirsk,The Calgary School Division,Public School,Robert Thirsk School,8777 Nose Hill Drive N.W.,Calgary,AB,Senior High,N,Provincial Data,1679,N,N,N,Y,2021/02/28,T3G5T3,1545308,-114.19477825950254,51.1308413397963,"(51.1308413397963, -114.19477825950254)"
Ecole de La Source,The Southern Francophone Education Region,Francophone,Ecole de La Source,360 - 94 Avenue S.E.,Calgary,AB,Elementary/Junior High/Senior High,N,Provincial Data,1014,N,Y,Y,Y,2021/02/28,T2J0E8,1382595,-114.06183138040169,50.969178756738906,"(50.969178756738906, -114.06183138040169)"
St. Dominic,The Calgary Roman Catholic Separate School Division,Separate School,St. Dominic School,4820 Dalhart Road N.W.,Calgary,AB,Elementary,N,Provincial Data,8531,N,Y,N,N,2021/02/28,T3A1C2,1383508,-114.1542440563493,51.109558751484805,"(51.109558751484805, -114.1542440563493)"
Louis Riel,The Calgary School Division,Public School,Louis Riel School,9632 Oakfield Drive S.W.,Calgary,AB,Elementary/Junior High,N,Provincial Data,9625,N,Y,Y,N,2021/02/28,T2V0L1,1382892,-114.13225791942196,50.96673112642772,"(50.96673112642772, -114.13225791942196)"
Apostles of Jesus,The Calgary Roman Catholic Separate School Division,Separate School,Apostles of Jesus,15 Skyview Ranch Street NE,Calgary,AB,Elementary/Junior High,N,Provincial Data,2155,N,Y,Y,N,2021/02/28,T3N1H6,2382713,-113.95651306852255,51.15841731143543,"(51.15841731143543, -113.95651306852255)"
William Reid,The Calgary School Division,Public School,William Reid School,1216 - 36 Avenue S.W.,Calgary,AB,Elementary,N,Provincial Data,9142,N,Y,N,N,2021/02/28,T2T2E9,1382204,-114.09034281185752,51.02217450136028,"(51.02217450136028, -114.09034281185752)"
Ecole St. Pius X,The Calgary Roman Catholic Separate School Division,Separate School,Ecole St. Pius X School,2312 - 18 Street N.W.,Calgary,AB,Elementary,N,Provincial Data,8524,N,Y,N,N,2021/02/28,T2M3T5,1383009,-114.10340626317118,51.072972533433195,"(51.072972533433195, -114.10340626317118)"
St. John Henry Newman,The Calgary Roman Catholic Separate School Division,Separate School,St. John Henry Newman School,16201 McKenzie Lake Boulevard S.E.,Calgary,AB,Elementary/Junior High,N,Provincial Data,8731,N,Y,Y,N,2021/02/28,T2Z2G7,1370398,-113.98885844209255,50.90733934148648,"(50.90733934148648, -113.98885844209255)"
"Almadina Language Charter Academy, Ogden Campus",Almadina School Society,Charter,"Almadina Language Charter Academy, Ogden Campus","118, 3132-26 St NE",Calgary,AB,Elementary/Junior High,N,Provincial Data,1725,N,Y,Y,N,2021/02/28,T2C0G8,1382903,-114.01212291757233,50.984496584508484,"(50.984496584508484, -114.01212291757233)"
CLS James Fowler Writing Centre,The Calgary School Division,Public School,CLS James Fowler Writing Centre,4004 4 St NE,Calgary,AB,Unknown,N,Provincial Data,2246,N,N,N,N,2021/02/28,T2K1A1,1383037,-114.07051630306398,51.08653214680896,"(51.08653214680896, -114.07051630306398)"
Manmeet Singh Bhullar,The Calgary School Division,Public School,Manmeet Singh Bhullar School,1027 Martindale Blvd. NE,Calgary,AB,Elementary,N,Provincial Data,2145,N,Y,N,N,2021/02/28,T3J4Z1,2393006,-113.95942254994074,51.12330682184331,"(51.12330682184331, -113.95942254994074)"
Our Lady of Grace,The Calgary Roman Catholic Separate School Division,Separate School,Our Lady of Grace School,736 Evanston Drive,Calgary,AB,Elementary/Junior High,N,Provincial Data,2083,N,Y,Y,N,2021/02/28,T3P0N7,2357507,-114.12048660255113,51.179339437701934,"(51.179339437701934, -114.12048660255113)"
Bow Valley College,,Post Secondary,,,Calgary,AB,,Y,Post Secondary Data,,N,N,N,N,2021/02/28,T2G4S6,1352704,-114.0561994182128,51.04769511419567,"(51.04769511419567, -114.0561994182128)"
Niitsitapi Learning Centre,The Calgary School Division,Public School,Niitsitapi Learning Centre,3743 Dover Ridge Drive S.W.,Calgary,AB,Elementary,N,Provincial Data,2123,N,Y,N,N,2021/02/28,T2B2E1,1382921,-113.97933712379474,51.02058871132544,"(51.02058871132544, -113.97933712379474)"
Samuel W. Shaw,The Calgary School Division,Public School,Samuel W. Shaw School,115 Shannon Drive S.W.,Calgary,AB,Elementary/Junior High,N,Provincial Data,1451,N,Y,Y,N,2021/02/28,T2Y0K6,1587356,-114.08737559285785,50.90813212324954,"(50.90813212324954, -114.08737559285785)"
Collingwood,The Calgary School Division,Public School,Collingwood School,3826 Collingwood Drive N.W.,Calgary,AB,Elementary,N,Provincial Data,9212,N,Y,N,N,2021/02/28,T2L0R6,1382295,-114.10325751411635,51.08578192419336,"(51.08578192419336, -114.10325751411635)"
Glenmore Christian Academy Junior High,GCA Educational Society,Private School,Glenmore Christian Academy Junior High,16520-24 Street SW,Calgary,AB,Elementary/Junior High,N,Provincial Data,1956,N,Y,Y,N,2021/02/28,T2Y4W2,1590356,-114.1152537080784,50.903979506197274,"(50.903979506197274, -114.1152537080784)"
Sherwood,The Calgary School Division,Public School,Sherwood School,2011 - 66 Avenue S.E.,Calgary,AB,Elementary/Junior High,N,Provincial Data,9632,N,Y,Y,N,2021/02/28,T2C1J4,1382196,-114.01147842270753,50.99369667860713,"(50.99369667860713, -114.01147842270753)"
Mountain View Academy,Mountain View Academy Society,Private School,Mountain View Academy,3915 34 Street NE,Calgary,AB,Elementary/Junior High/Senior High,N,Provincial Data,308,N,Y,Y,Y,2021/02/28,T1Y6Z8,1374881,-113.98610394866746,51.08843780136255,"(51.08843780136255, -113.98610394866746)"
Elboya,The Calgary School Division,Public School,Elboya School,4804 - 6 Street S.W.,Calgary,AB,Elementary/Junior High,N,Provincial Data,9627,N,Y,Y,N,2021/02/28,T2S2N3,1376697,-114.0782137031807,51.0108833841301,"(51.0108833841301, -114.0782137031807)"
Western Canada High,The Calgary School Division,Public School,Western Canada High School,641 - 17 Avenue S.W.,Calgary,AB,Senior High,N,Provincial Data,9816,N,N,N,Y,2021/02/28,T2S0B5,1382531,-114.07754756915828,51.036994753559966,"(51.036994753559966, -114.07754756915828)"
Marion Carson,The Calgary School Division,Public School,Marion Carson School,5225 Varsity Drive N.W.,Calgary,AB,Elementary,N,Provincial Data,9241,N,Y,N,N,2021/02/28,T3A1A7,1382939,-114.16140627211097,51.092916584148945,"(51.092916584148945, -114.16140627211097)"
Glendale,The Calgary School Division,Public School,Glendale School,2415 Kelwood Drive S.W.,Calgary,AB,Elementary,N,Provincial Data,9143,N,Y,N,N,2021/02/28,T3E3Z8,1382522,-114.14557999709048,51.03246723051752,"(51.03246723051752, -114.14557999709048)"
Ranchlands,The Calgary School Division,Public School,Ranchlands School,610 Ranchlands Boulevard N.W.,Calgary,AB,Elementary,N,Provincial Data,9374,N,Y,N,N,2021/02/28,T3G2C5,1537651,-114.17920972929103,51.11870483095547,"(51.11870483095547, -114.17920972929103)"
Sunalta,The Calgary School Division,Public School,Sunalta School,536 Sonora Avenue S.W.,Calgary,AB,Elementary,N,Provincial Data,9368,N,Y,N,N,2021/02/28,T3C2J9,1382600,-114.11089765413911,51.0413434048884,"(51.0413434048884, -114.11089765413911)"
Varsity Acres,The Calgary School Division,Public School,Varsity Acres School,4255 40 Street NW,Calgary,AB,Elementary,N,Provincial Data,9238,N,Y,N,N,2021/02/28,T3A0H7,1383570,-114.14821824727312,51.09101439261288,"(51.09101439261288, -114.14821824727312)"
Ecole de la Rose Sauvage,The Southern Francophone Education Region,Francophone,Ecole de la Rose Sauvage,2512 - 4 Street N.W.,Calgary,AB,Junior High/Senior High,N,Provincial Data,9228,N,N,Y,Y,2021/02/28,T2M2Z9,1383015,-114.07030340753766,51.074844648813006,"(51.074844648813006, -114.07030340753766)"
Bearspaw Christian School & College,Bearspaw Christian School Society,Private School,Bearspaw Christian School & College,15001 - 69 Street NW,Calgary,AB,Elementary/Junior High/Senior High,N,Provincial Data,9927,N,Y,Y,Y,2021/02/28,T3R1C5,1369136,-114.18951597666997,51.18697361629044,"(51.18697361629044, -114.18951597666997)"
Lester B. Pearson High,The Calgary School Division,Public School,Lester B. Pearson High School,3020 - 52 Street N.E.,Calgary,AB,Senior High,N,Provincial Data,9865,N,N,N,Y,2021/02/28,T1Y5P4,1382280,-113.95639757416347,51.076949920555364,"(51.076949920555364, -113.95639757416347)"
Nelson Mandela High,The Calgary School Division,Public School,Nelson Mandela High School,45 Saddletowne Circle NE,Calgary,AB,Senior High,N,Provincial Data,1989,N,N,N,Y,2021/02/28,T3J4W3,2326426,-113.94884571068388,51.12198056503717,"(51.12198056503717, -113.94884571068388)"
Altadore,The Calgary School Division,Public School,Altadore School,4506 - 16 Street S.W.,Calgary,AB,Elementary,N,Provincial Data,9109,N,Y,N,N,2021/02/28,T2T4H9,1382211,-114.09973324841206,51.014002662591665,"(51.014002662591665, -114.09973324841206)"
St. Thomas Aquinas,The Calgary Roman Catholic Separate School Division,Separate School,St. Thomas Aquinas School,4540 - 26 Avenue S.W.,Calgary,AB,Elementary,N,Provincial Data,8527,N,Y,N,N,2021/02/28,T3E0R1,1382518,-114.1518543511971,51.03097219077775,"(51.03097219077775, -114.1518543511971)"
Sibylla Kiddle,The Calgary School Division,Public School,Sibylla Kiddle School,126 Cranford Drive SE,Calgary,AB,Unknown,N,Provincial Data,2281,N,N,N,N,2021/02/28,,2523238,-113.97080229585185,50.87786253882289,"(50.87786253882289, -113.97080229585185)"
Dr. Gladys McKelvie Egbert,The Calgary School Division,Public School,Dr. Gladys McKelvie Egbert,6033 Madigan Dr. NE,Calgary,AB,Elementary/Junior High,N,Provincial Data,9350,N,Y,Y,N,2021/02/28,T2A5G9,1381143,-113.94152909003293,51.05889221373373,"(51.05889221373373, -113.94152909003293)"
North Haven,The Calgary School Division,Public School,North Haven School,4922 North Haven Drive N.W.,Calgary,AB,Elementary,N,Provincial Data,9225,N,Y,N,N,2021/02/28,T2K2K2,1383138,-114.08661278743479,51.09750907704134,"(51.09750907704134, -114.08661278743479)"
Dr. Freda Miller,The Calgary School Division,Public School,Dr. Freda Miller School,2511 Fish Creek Blvd,Calgary,AB,Unknown,N,Provincial Data,2280,N,N,N,N,2021/02/28,T2Y0E8,2596714,-114.11601857785382,50.920850446211496,"(50.920850446211496, -114.11601857785382)"
St. Maria Goretti Elementary,The Calgary Roman Catholic Separate School Division,Separate School,St. Maria Goretti Elementary School,375 Hawkstone Drive N.W.,Calgary,AB,Elementary,N,Provincial Data,8556,N,Y,N,N,2021/02/28,T3G3T7,1413751,-114.17775072940658,51.13452422241288,"(51.13452422241288, -114.17775072940658)"
St. Philip,The Calgary Roman Catholic Separate School Division,Separate School,St. Philip School,13825 Parkside Drive S.E.,Calgary,AB,Elementary,N,Provincial Data,8724,N,Y,N,N,2021/02/28,T2J5A8,1541836,-114.03827458672424,50.92788261580273,"(50.92788261580273, -114.03827458672424)"
Keeler,The Calgary School Division,Public School,Keeler School,4807 Forego Avenue S.E.,Calgary,AB,Elementary,N,Provincial Data,9318,N,Y,N,N,2021/02/28,T2A2C4,1382138,-113.96481312102036,51.04925682287008,"(51.04925682287008, -113.96481312102036)"
John G Diefenbaker High,The Calgary School Division,Public School,John G Diefenbaker High School,6620 - 4 Street N.W.,Calgary,AB,Senior High,N,Provincial Data,9860,N,N,N,Y,2021/02/28,T2K1C2,1383511,-114.07013116580133,51.112797441016106,"(51.112797441016106, -114.07013116580133)"
Glenmeadows,The Calgary School Division,Public School,Glenmeadows School,4931 Grove Hill Road S.W.,Calgary,AB,Elementary,N,Provincial Data,9123,N,Y,N,N,2021/02/28,T3E4G4,1379112,-114.15892905753779,51.034861798599835,"(51.034861798599835, -114.15892905753779)"
Discovering Choices 2,The Calgary School Division,Public School,Discovering Choices 2,#92 116 3800 Memorial Dr NE,Calgary,AB,Senior High,N,Provincial Data,1161,N,N,N,Y,2021/02/28,T2A2K2,1374532,-113.9784098464004,51.055338754642,"(51.055338754642, -113.9784098464004)"
Canyon Meadows,The Calgary School Division,Public School,Canyon Meadows School,395 Canterbury Drive S.W.,Calgary,AB,Elementary,N,Provincial Data,9355,N,Y,N,N,2021/02/28,T2W1J1,1382575,-114.078091154179,50.947410359630354,"(50.947410359630354, -114.078091154179)"
St. Clare,The Calgary Roman Catholic Separate School Division,Separate School,St. Clare,"12455 Coventry Hills Way, N.E.",Calgary,AB,Elementary,N,Provincial Data,1118,N,Y,N,N,2021/02/28,T3K5Z4,1383528,-114.04539562092779,51.16474252576233,"(51.16474252576233, -114.04539562092779)"
Capitol Hill,The Calgary School Division,Public School,Capitol Hill School,2210 - 18 Street N.W.,Calgary,AB,Elementary,N,Provincial Data,9209,N,Y,N,N,2021/02/28,T2M3T4,1383006,-114.10391753803674,51.0720766329197,"(51.0720766329197, -114.10391753803674)"
Richmond,The Calgary School Division,Public School,Richmond School,2701 - 22 Street S.W. c/o Richmond Elementary Schoo,Calgary,AB,Elementary,N,Provincial Data,9100,N,Y,N,N,2021/02/28,T2T5G5,1000945,-114.11503864070598,51.03013270988322,"(51.03013270988322, -114.11503864070598)"
Captain John Palliser,The Calgary School Division,Public School,Captain John Palliser School,1484 Northmount Drive N.W.,Calgary,AB,Elementary,N,Provincial Data,9210,N,Y,N,N,2021/02/28,T2L0G6,1000998,-114.13601610820098,51.09636485434405,"(51.09636485434405, -114.13601610820098)"
Bishop Pinkham,The Calgary School Division,Public School,Bishop Pinkham School,3304 - 63 Avenue S.W.,Calgary,AB,Junior High,N,Provincial Data,9645,N,N,Y,N,2021/02/28,T3E5K1,1382910,-114.13069924396372,50.997262984147994,"(50.997262984147994, -114.13069924396372)"
Coventry Hills,The Calgary School Division,Public School,Coventry Hills School,12350 Coventry Hills Way NE,Calgary,AB,Elementary,N,Provincial Data,1038,N,Y,N,N,2021/02/28,T3K5S9,1383529,-114.0514136639579,51.16518040401562,"(51.16518040401562, -114.0514136639579)"
Father Lacombe,The Calgary Roman Catholic Separate School Division,Separate School,Father Lacombe School,3615 Radcliffe Drive S.E.,Calgary,AB,Senior High,N,Provincial Data,8903,N,N,N,Y,2021/02/28,T2A6B4,1559297,-113.98324473162776,51.04738091995836,"(51.04738091995836, -113.98324473162776)"
University of Calgary - Downtown Campus,,Post Secondary,,,Calgary,AB,,Y,Post Secondary Data,,N,N,N,N,2021/02/28,T2P1H9,1417012,-114.08212752491288,51.04636129977132,"(51.04636129977132, -114.08212752491288)"
McKenzie Highlands,The Calgary School Division,Public School,McKenzie Highlands School,25 McKenzie Towne Dr. SE,Calgary,AB,Elementary/Junior High,N,Provincial Data,2055,N,Y,Y,N,2021/02/28,T2Z4B7,2365707,-113.97007322043322,50.910993656345894,"(50.910993656345894, -113.97007322043322)"
Rundle College Junior High,Rundle College Society,Private School,Rundle College Junior High School,7375 - 17 Avenue SW,Calgary,AB,Junior High,N,Provincial Data,5002,N,N,Y,N,2021/02/28,T3H3W5,1382816,-114.19392208231754,51.036894107397956,"(51.036894107397956, -114.19392208231754)"
Bowness High,The Calgary School Division,Public School,Bowness High School,4627 - 77 Street N.W.,Calgary,AB,Senior High,N,Provincial Data,9847,N,N,N,Y,2021/02/28,T3B2N6,1382936,-114.20025100350331,51.093175259870236,"(51.093175259870236, -114.20025100350331)"
Thomas B Riley,The Calgary School Division,Public School,Thomas B Riley School,3915 - 69 Street N.W.,Calgary,AB,Elementary/Junior High,N,Provincial Data,9611,N,Y,Y,N,2021/02/28,T3B2J9,1383121,-114.18905159556309,51.087529168398795,"(51.087529168398795, -114.18905159556309)"
Riverbend,The Calgary School Division,Public School,Riverbend School,65 Rivervalley Drive S.E.,Calgary,AB,Elementary,N,Provincial Data,9386,N,Y,N,N,2021/02/28,T2C3Z7,1382597,-114.01850205309456,50.9721562403216,"(50.9721562403216, -114.01850205309456)"
Roland Michener,The Calgary School Division,Public School,Roland Michener School,5958 - 4 Avenue N.E.,Calgary,AB,Elementary,N,Provincial Data,9250,N,Y,N,N,2021/02/28,T2A4B1,1381381,-113.9473996997224,51.05701938727849,"(51.05701938727849, -113.9473996997224)"
St. Jude,The Calgary Roman Catholic Separate School Division,Separate School,St. Jude School,730 Woodbine Boulevard S.W.,Calgary,AB,Elementary,N,Provincial Data,8546,N,Y,N,N,2021/02/28,T2W4W4,1382571,-114.13343743178538,50.94295223776885,"(50.94295223776885, -114.13343743178538)"
St. Boniface Elementary,The Calgary Roman Catholic Separate School Division,Separate School,St. Boniface Elementary School,927 Lake Sylvan Drive S.E.,Calgary,AB,Elementary,N,Provincial Data,8532,N,Y,N,N,2021/02/28,T2J2P8,1382586,-114.04234128576839,50.94306370755293,"(50.94306370755293, -114.04234128576839)"
Notre Dame High,The Calgary Roman Catholic Separate School Division,Separate School,Notre Dame High School,11900 Country Village Link NE,Calgary,AB,Senior High,N,Provincial Data,1275,N,N,N,Y,2021/02/28,T3K6E4,1383527,-114.06583403972905,51.157659409280406,"(51.157659409280406, -114.06583403972905)"
Lycee Louis Pasteur,Lycee Louis Pasteur Society,Private School,Lycee Louis Pasteur,4099 Garrison Blvd. S.W.,Calgary,AB,Elementary/Junior High/Senior High,N,Provincial Data,9919,N,Y,Y,Y,2021/02/28,T2T6G2,1001606,-114.11448312772814,51.01764277053325,"(51.01764277053325, -114.11448312772814)"
Rosemont,The Calgary School Division,Public School,Rosemont School,19 Rosevale Drive N.W.,Calgary,AB,Elementary,N,Provincial Data,9231,N,Y,N,N,2021/02/28,T2K1N6,1000924,-114.0923733016467,51.077871214649115,"(51.077871214649115, -114.0923733016467)"
Marshall Springs,The Calgary School Division,Public School,Marshall Springs School,1100 Everridge Drive S.W.,Calgary,AB,Elementary/Junior High,N,Provincial Data,2069,N,Y,Y,N,2021/02/28,T2Y4X5,2370193,-114.11230037386002,50.91144483804469,"(50.91144483804469, -114.11230037386002)"
Mount Royal,The Calgary School Division,Public School,Mount Royal School,2234 - 14 Street S.W.,Calgary,AB,Junior High,N,Provincial Data,9639,N,N,Y,N,2021/02/28,T2T3T3,1382526,-114.09391017234952,51.03472234343416,"(51.03472234343416, -114.09391017234952)"
Peter Lougheed,The Calgary School Division,Public School,Peter Lougheed School,148 Saddletree Close NE,Calgary,AB,Elementary/Junior High,N,Provincial Data,2068,N,Y,Y,N,2021/02/28,T3J5J1,2357896,-113.9556832273144,51.13066963155768,"(51.13066963155768, -113.9556832273144)"
King George,The Calgary School Division,Public School,King George School,2108 - 10 Street N.W.,Calgary,AB,Elementary,N,Provincial Data,9608,N,Y,N,N,2021/02/28,T2M3M4,1381140,-114.08405552840081,51.07089706824776,"(51.07089706824776, -114.08405552840081)"
Southwest Elementary Campus,Foundations for the Future Charter Academy Charter School Society,Charter,Southwest Elementary Campus,898 Sylvester Cres. SW,Calgary,AB,Elementary,N,Provincial Data,1352,N,Y,N,N,2021/02/28,T2W0R7,1382887,-114.0825466024522,50.95898072431419,"(50.95898072431419, -114.0825466024522)"
Jennie Elliott,The Calgary School Division,Public School,Jennie Elliott School,3031 Lindsay Drive S.W.,Calgary,AB,Elementary,N,Provincial Data,9103,N,Y,N,N,2021/02/28,T3E6A9,1382197,-114.12722864308043,50.996129562407425,"(50.996129562407425, -114.12722864308043)"
Renfrew Thomas W. Buchanan Centre,Renfrew Educational Services Society,Private School,Renfrew Thomas W. Buchanan Centre,2050 - 21 Street N.E.,Calgary,AB,Elementary,N,Provincial Data,250,N,Y,N,N,2021/02/28,T2X3V4,1370835,-114.05600565954606,50.901943699866905,"(50.901943699866905, -114.05600565954606)"
St. Bernadette,The Calgary Roman Catholic Separate School Division,Separate School,St. Bernadette School,55 Lynndale Crescent S.E.,Calgary,AB,Elementary,N,Provincial Data,8709,N,Y,N,N,2021/02/28,T2C0T8,1541842,-114.00919782029995,50.990390881488004,"(50.990390881488004, -114.00919782029995)"
Fairview,The Calgary School Division,Public School,Fairview School,7840 Fairmount Drive S.E.,Calgary,AB,Elementary/Junior High,N,Provincial Data,9633,N,Y,Y,N,2021/02/28,T2H0Y1,1382900,-114.05945001776159,50.983985560089515,"(50.983985560089515, -114.05945001776159)"
Le Roi Daniels,The Calgary School Division,Public School,Le Roi Daniels School,47 Fyffe Road S.E.,Calgary,AB,Elementary,N,Provincial Data,9320,N,Y,N,N,2021/02/28,T2H1B9,1382901,-114.05795555640731,50.983858361503565,"(50.983858361503565, -114.05795555640731)"
Woodlands,The Calgary School Division,Public School,Woodlands School,88 Woodgreen Drive S.W.,Calgary,AB,Elementary,N,Provincial Data,9371,N,Y,N,N,2021/02/28,T2W4W9,1382584,-114.10696961770047,50.93893519258322,"(50.93893519258322, -114.10696961770047)"
Rundle College Senior High,Rundle College Society,Private School,Rundle College Senior High School,7375 - 17 Avenue SW,Calgary,AB,Senior High,N,Provincial Data,9952,N,N,N,Y,2021/02/28,T3H3W5,1382816,-114.19392208231754,51.036894107397956,"(51.036894107397956, -114.19392208231754)"
St. Monica,The Calgary Roman Catholic Separate School Division,Separate School,St. Monica School,235 - 18 Avenue S.W.,Calgary,AB,Elementary/Junior High,N,Provincial Data,8530,N,Y,Y,N,2021/02/28,T2S0C2,1382532,-114.06781436403641,51.036769787972446,"(51.036769787972446, -114.06781436403641)"
Mount Royal University - Holy Cross Campus,,Post Secondary,,,Calgary,AB,,Y,Post Secondary Data,,N,N,N,N,2021/02/28,T2S3C3,1557837,-114.06708119390154,51.032433490966454,"(51.032433490966454, -114.06708119390154)"
Valley Creek,The Calgary School Division,Public School,Valley Creek School,10951 Hidden Valley Dr NW,Calgary,AB,Elementary/Junior High,N,Provincial Data,1098,N,Y,Y,N,2021/02/28,T3A6J2,1524240,-114.11667287049605,51.15023383387541,"(51.15023383387541, -114.11667287049605)"
James Fowler High,The Calgary School Division,Public School,James Fowler High School,4004 - 4 Street N.W.,Calgary,AB,Senior High,N,Provincial Data,9825,N,N,N,Y,2021/02/28,T2K1A1,1383037,-114.07051630306398,51.08653214680896,"(51.08653214680896, -114.07051630306398)"
Christ the King Catholic,The Calgary Roman Catholic Separate School Division,Separate School,Christ the King Catholic School,333 Cranston Way SE,Calgary,AB,Elementary/Junior High,N,Provincial Data,1484,N,Y,Y,N,2021/02/28,T3M1K6,1382185,-113.97597027648685,50.887836920058064,"(50.887836920058064, -113.97597027648685)"
Our Lady of Peace Elementary Junior High,The Calgary Roman Catholic Separate School Division,Separate School,Our Lady of Peace Elementary Junior High School,14826 Millrise Hill S.W.,Calgary,AB,Elementary/Junior High,N,Provincial Data,8732,N,Y,Y,N,2021/02/28,T2Y2B4,1382578,-114.08771017487246,50.91848505964268,"(50.91848505964268, -114.08771017487246)"
William D. Pratt,The Calgary School Division,Public School,William D. Pratt School,9850 Royal Oak Drive Nw,Calgary,AB,Elementary/Junior High,N,Provincial Data,2067,N,Y,Y,N,2021/02/28,T3G0A4,2357882,-114.22409259134834,51.14936065327492,"(51.14936065327492, -114.22409259134834)"
Sir Wilfrid Laurier,The Calgary School Division,Public School,Sir Wilfrid Laurier School,819 - 32 Street S.E.,Calgary,AB,Elementary/Junior High,N,Provincial Data,9648,N,Y,Y,N,2021/02/28,T2A0Y9,1382134,-113.98930608729215,51.045734772451205,"(51.045734772451205, -113.98930608729215)"
Alternative High,The Calgary School Division,Public School,Alternative High School,5003 - 20 Street S.W.,Calgary,AB,Senior High,N,Provincial Data,9863,N,N,N,Y,2021/02/28,T2T5A5,1382202,-114.10995997464397,51.00965945971756,"(51.00965945971756, -114.10995997464397)"
Elbow Park,The Calgary School Division,Public School,Elbow Park School,721 - 38 Avenue S.W.,Calgary,AB,Elementary,N,Provincial Data,9119,N,Y,N,N,2021/02/28,T2T2H8,1382920,-114.0821970414466,51.01957747339584,"(51.01957747339584, -114.0821970414466)"
Dalhousie,The Calgary School Division,Public School,Dalhousie School,4440 Dallyn Street NW,Calgary,AB,Elementary,N,Provincial Data,9240,N,Y,N,N,2021/02/28,T3A1K3,1384096,-114.1513784650062,51.10652693420392,"(51.10652693420392, -114.1513784650062)"
Janet Johnstone,The Calgary School Division,Public School,Janet Johnstone School,224 Shawnessy Drive S.W.,Calgary,AB,Elementary,N,Provincial Data,9270,N,Y,N,N,2021/02/28,T2Y1M1,1382576,-114.08008600922928,50.90936931399449,"(50.90936931399449, -114.08008600922928)"
Captain Nichola Goddard,The Calgary School Division,Public School,Captain Nichola Goddard School,405 Panatella Blvd NW,Calgary,AB,Elementary/Junior High,N,Provincial Data,1676,N,Y,Y,N,2021/02/28,T3K0P3,1546748,-114.08867875638369,51.162450928603484,"(51.162450928603484, -114.08867875638369)"
Terry Fox,The Calgary School Division,Public School,Terry Fox School,139 Falshire Drive N.E.,Calgary,AB,Junior High,N,Provincial Data,9689,N,N,Y,N,2021/02/28,T3J1P7,1383228,-113.94510398940886,51.10465691103333,"(51.10465691103333, -113.94510398940886)"
St. Damien,The Calgary Roman Catholic Separate School Division,Separate School,St. Damien School,3619 - 28 Street S.E.,Calgary,AB,Elementary,N,Provincial Data,8550,N,Y,N,N,2021/02/28,T2B2J1,1382602,-113.99222806283835,51.02192021628255,"(51.02192021628255, -113.99222806283835)"
Saddle Ridge,The Calgary School Division,Public School,Saddle Ridge School,368 Saddlecrest Blvd N.E.,Calgary,AB,Elementary,N,Provincial Data,1520,N,Y,N,N,2021/02/28,T3J5L6,1369491,-113.93687964231422,51.136882575151375,"(51.136882575151375, -113.93687964231422)"
Project Trust,The Calgary School Division,Public School,Project Trust,"#206, 315 10 avenue  S.E.",Calgary,AB,Senior High,N,Provincial Data,9599,N,N,N,Y,2021/02/28,T2M4P6,1141724,-114.08284033402592,51.07207021510708,"(51.07207021510708, -114.08284033402592)"
Colonel J. Fred Scott,The Calgary School Division,Public School,Colonel J. Fred Scott School,171 Whitehorn Road N.E.,Calgary,AB,Elementary,N,Provincial Data,9348,N,Y,N,N,2021/02/28,T1Y3C4,1382350,-113.96816444284232,51.08776690368872,"(51.08776690368872, -113.96816444284232)"
Start Outreach,The Calgary School Division,Public School,Start Outreach,4110 - 79 Street NW,Calgary,AB,Senior High,N,Provincial Data,1232,N,N,N,Y,2021/02/28,T3B5C2,1417013,-114.20190323510076,51.08942952683853,"(51.08942952683853, -114.20190323510076)"
University,The Calgary School Division,Public School,University School,3035 Utah Drive N.W.,Calgary,AB,Elementary,N,Provincial Data,9237,N,Y,N,N,2021/02/28,T2N3Z9,1398634,-114.13327561326304,51.06980820007824,"(51.06980820007824, -114.13327561326304)"
Phoenix Education Foundation,Phoenix Education Foundation,Private School,Phoenix Education Foundation,320 19 Street S.E.,Calgary,AB,Elementary/Junior High/Senior High,N,Provincial Data,1264,N,Y,Y,Y,2021/02/28,T2E6J6,1005179,-114.00782569956368,51.0502641577022,"(51.0502641577022, -114.00782569956368)"
Banbury Crossroads,Banbury Crossroads School,Private School,Banbury Crossroads School,B1 #201 2451 Dieppe Avenue S.W.,Calgary,AB,Elementary/Junior High/Senior High,N,Provincial Data,9935,N,Y,Y,Y,2021/02/28,T3E7K1,1379081,-114.1190387515867,51.01928658422201,"(51.01928658422201, -114.1190387515867)"
St. Gerard Bilingual,The Calgary Roman Catholic Separate School Division,Separate School,St. Gerard Bilingual School,1204 - 96 Avenue S.W.,Calgary,AB,Elementary,N,Provincial Data,8517,N,Y,N,N,2021/02/28,T2V0Y1,1382275,-114.08847911062506,50.96887003157332,"(50.96887003157332, -114.08847911062506)"
Centennial High,The Calgary School Division,Public School,Centennial High School,"55 Sun Valley Boulevard, S.E.",Calgary,AB,Senior High,N,Provincial Data,1224,N,N,N,Y,2021/02/28,T2X3W7,1382256,-114.05335484657195,50.90610968295476,"(50.90610968295476, -114.05335484657195)"
St. Mary's High,The Calgary Roman Catholic Separate School Division,Separate School,St. Mary's High School,111 - 18 Avenue S.W.,Calgary,AB,Senior High,N,Provincial Data,8904,N,N,N,Y,2021/02/28,T2S0B8,1382530,-114.06401757166121,51.03661432292529,"(51.03661432292529, -114.06401757166121)"
Midnapore,The Calgary School Division,Public School,Midnapore School,55 Midpark Rise S.E.,Calgary,AB,Elementary,N,Provincial Data,9363,N,Y,N,N,2021/02/28,T2X1L7,1382577,-114.05517470231423,50.91504020740219,"(50.91504020740219, -114.05517470231423)"
Maple Ridge,The Calgary School Division,Public School,Maple Ridge School,10203 Maplemont Road S.E.,Calgary,AB,Elementary,N,Provincial Data,9321,N,Y,N,N,2021/02/28,T2J1W3,1382591,-114.04195879903295,50.96189052183626,"(50.96189052183626, -114.04195879903295)"
